FIPS,Stabr,Area_Name,poverty_rate,unemployment_rate,urban_rural_rate,house_value,lat,lng,population
1001.0,AL,Autauga County,11.7,2.2,2,232431.87590561475,32.5349,-86.6427,59285.0
1003.0,AL,Baldwin County,10.0,2.3,3,375064.36754007195,30.7277,-87.7226,239945.0
1005.0,AL,Barbour County,25.5,4.4,6,149074.67430117738,31.8696,-85.3932,24757.0
1007.0,AL,Bibb County,19.4,2.5,1,201633.07463485218,32.9986,-87.1265,22152.0
1009.0,AL,Blount County,12.8,2.1,1,222516.17874683472,33.9809,-86.5674,59292.0
1011.0,AL,Bullock County,33.6,2.4,8,124476.41562543446,32.1005,-85.7157,10157.0
1013.0,AL,Butler County,23.6,2.9,6,111586.73899212286,31.7524,-86.6803,18807.0
1015.0,AL,Calhoun County,20.1,2.8,3,151482.45442224282,33.7714,-85.826,116141.0
1017.0,AL,Chambers County,17.1,2.4,6,131320.56139076123,32.9143,-85.392,34450.0
1019.0,AL,Cherokee County,15.6,2.4,8,211759.72760091018,34.1759,-85.6038,25224.0
1021.0,AL,Chilton County,15.3,2.2,1,211738.04429116793,32.8479,-86.7188,45500.0
1023.0,AL,Choctaw County,24.8,4.0,9,130690.11760475035,32.0198,-88.2632,12525.0
1025.0,AL,Clarke County,19.0,5.0,9,145967.4562814736,31.6767,-87.8308,22802.0
1027.0,AL,Clay County,16.9,2.4,9,156044.18564523594,33.269,-85.8605,14188.0
1029.0,AL,Cleburne County,15.8,2.3,8,211861.4707749117,33.6745,-85.5188,15254.0
1031.0,AL,Coffee County,16.5,2.5,4,184387.2096517518,31.4027,-85.9882,54231.0
1033.0,AL,Colbert County,15.4,2.9,3,175637.28234090775,34.7005,-87.8049,57648.0
1035.0,AL,Conecuh County,26.5,3.5,9,126701.3152775722,31.4293,-86.9937,11411.0
1037.0,AL,Coosa County,18.2,2.6,8,177441.67388685222,32.9362,-86.2477,10323.0
1039.0,AL,Covington County,16.7,2.7,6,143585.44334836336,31.2485,-86.4513,37647.0
1041.0,AL,Crenshaw County,19.5,2.7,8,125793.47411583747,31.7315,-86.3136,13144.0
1043.0,AL,Cullman County,15.5,2.0,4,231281.47565421334,34.1319,-86.8676,89463.0
1045.0,AL,Dale County,16.6,2.5,4,146095.01760147998,31.4318,-85.611,49516.0
1047.0,AL,Dallas County,31.4,5.4,4,78032.2355532683,32.326,-87.1065,37536.0
1049.0,AL,DeKalb County,21.6,2.3,6,189288.3342730827,34.4598,-85.8041,71946.0
1051.0,AL,Elmore County,12.5,2.1,2,245816.8487885663,32.5966,-86.1492,88669.0
1053.0,AL,Escambia County,21.3,3.1,6,141349.05952513745,31.1262,-87.1615,36695.0
1055.0,AL,Etowah County,19.6,2.8,3,157384.60171963973,34.0453,-86.0348,103208.0
1057.0,AL,Fayette County,16.2,2.9,8,133067.2898161859,33.7212,-87.7388,16173.0
1059.0,AL,Franklin County,22.5,2.6,6,159914.32459365862,34.4417,-87.8437,31978.0
1061.0,AL,Geneva County,19.2,2.4,3,148092.01219372632,31.0951,-85.8391,26726.0
1063.0,AL,Greene County,31.0,4.8,2,123630.65045309666,32.8531,-87.9522,7589.0
1065.0,AL,Hale County,23.0,3.3,2,160322.70502971366,32.7627,-87.6291,14749.0
1067.0,AL,Henry County,16.4,2.6,3,169241.23636781846,31.5147,-85.2414,17450.0
1069.0,AL,Houston County,16.5,2.6,3,174131.4018166509,31.1532,-85.3025,107628.0
1071.0,AL,Jackson County,16.0,2.5,6,181959.0151880751,34.7795,-85.9994,52839.0
1073.0,AL,Jefferson County,16.0,2.5,1,203167.71864153043,33.5543,-86.8964,669744.0
1075.0,AL,Lamar County,16.4,2.8,8,130911.63457514314,33.7791,-88.097,13809.0
1077.0,AL,Lauderdale County,13.6,2.5,3,202872.90032563245,34.9014,-87.654,95037.0
1079.0,AL,Lawrence County,14.2,2.3,3,202169.04836219616,34.5217,-87.311,33182.0
1081.0,AL,Lee County,17.9,2.3,3,294736.57402597,32.6011,-85.3555,177663.0
1083.0,AL,Limestone County,8.6,2.1,2,305254.34725555487,34.8101,-86.9814,107577.0
1085.0,AL,Lowndes County,29.4,4.6,2,147333.26452178956,32.1547,-86.6501,10008.0
1087.0,AL,Macon County,28.8,3.2,3,103717.81515852247,32.3859,-85.6927,18951.0
1089.0,AL,Madison County,10.5,2.0,2,298854.5838484875,34.7631,-86.5502,397135.0
1091.0,AL,Marengo County,23.5,3.3,6,146098.26596266852,32.2477,-87.7895,19027.0
1093.0,AL,Marion County,19.0,2.9,9,153571.58512029765,34.1366,-87.8871,29190.0
1095.0,AL,Marshall County,16.5,2.1,4,216646.46410763793,34.367,-86.3066,98712.0
1097.0,AL,Mobile County,16.3,3.1,2,181574.58191400906,30.7877,-88.2058,413162.0
1099.0,AL,Monroe County,19.1,4.3,8,130317.6421835365,31.5709,-87.3654,19580.0
1101.0,AL,Montgomery County,18.3,2.8,2,146783.79249388122,32.2203,-86.2076,227197.0
1103.0,AL,Morgan County,12.0,2.0,3,216492.6632062858,34.4535,-86.8529,123742.0
1105.0,AL,Perry County,33.8,5.0,8,132088.56503664202,32.6385,-87.2944,8231.0
1107.0,AL,Pickens County,21.5,3.0,2,135529.86365912523,33.2808,-88.0887,18843.0
1109.0,AL,Pike County,23.8,2.7,6,159358.2347153597,31.8027,-85.9409,32953.0
1111.0,AL,Randolph County,15.9,2.4,8,186927.14001941896,33.2938,-85.4591,22310.0
1113.0,AL,Russell County,18.9,2.8,2,163934.72639457232,32.2884,-85.1849,58858.0
1115.0,AL,St. Clair County,10.8,2.1,1,267358.73329925886,33.7157,-86.3146,92903.0
1117.0,AL,Shelby County,8.4,1.8,1,338190.31727614684,33.2643,-86.6607,226955.0
1119.0,AL,Sumter County,33.5,3.7,8,110940.4708285945,32.5911,-88.1988,12020.0
1121.0,AL,Talladega County,17.0,2.8,4,170494.13537955988,33.3801,-86.1659,81170.0
1123.0,AL,Tallapoosa County,15.1,2.5,6,226094.48739101572,32.8624,-85.7975,41070.0
1125.0,AL,Tuscaloosa County,19.2,2.3,2,220277.11665530832,33.2896,-87.5251,234036.0
1127.0,AL,Walker County,17.5,2.6,1,178528.17499941055,33.8033,-87.2973,64886.0
1129.0,AL,Washington County,18.7,2.6,8,150376.4721739201,31.4076,-88.2079,15270.0
1131.0,AL,Wilcox County,32.7,8.0,9,136465.38803296056,31.9893,-87.3082,10347.0
1133.0,AL,Winston County,16.6,2.7,8,175722.38759161072,34.1492,-87.3737,23637.0
2013.0,AK,Aleutians East Borough,18.0,2.1,9,,55.3669,-161.9805,3423.0
2016.0,AK,Aleutians West Census Area,10.0,3.0,9,,52.7985,-106.5633,5178.0
2020.0,AK,Anchorage Borough,8.9,3.4,2,385402.650731638,61.1498,-149.1082,289069.0
2050.0,AK,Bethel Census Area,29.3,9.7,7,,60.9132,-159.8186,18487.0
2060.0,AK,Bristol Bay Borough,11.7,3.7,9,,58.7439,-156.7,878.0
2063.0,AK,Chugach Census Area,8.7,4.7,9,,60.7234,-145.7714,6964.0
2066.0,AK,Copper River Census Area,14.2,7.6,9,,61.8834,-143.9681,2626.0
2068.0,AK,Denali Borough,7.8,6.0,9,,63.6714,-150.0118,2029.0
2070.0,AK,Dillingham Census Area,23.4,6.4,9,,59.8003,-158.2346,4780.0
2090.0,AK,Fairbanks North Star Borough,7.6,3.8,3,288753.5139579467,64.8078,-146.5654,95555.0
2100.0,AK,Haines Borough,10.0,6.6,9,311035.5507627345,59.1199,-135.5002,2077.0
2105.0,AK,Hoonah-Angoon Census Area,17.2,5.6,9,,58.2872,-135.6402,2313.0
2110.0,AK,Juneau Borough,9.1,3.0,5,466050.7571002981,58.4546,-134.1733,31969.0
2122.0,AK,Kenai Peninsula Borough,11.5,4.7,7,334160.1910084889,60.2654,-151.5651,59843.0
2130.0,AK,Ketchikan Gateway Borough,9.3,3.7,7,385699.6919282945,55.5852,-130.9282,13870.0
2150.0,AK,Kodiak Island Borough,8.5,4.4,7,404461.90157310374,57.6791,-153.7992,12878.0
2158.0,AK,Kusilvak Census Area,30.8,15.1,9,,62.1547,-163.3812,8277.0
2164.0,AK,Lake and Peninsula Borough,20.4,5.9,9,,58.6548,-156.1891,1007.0
2170.0,AK,Matanuska-Susitna Borough,9.7,4.8,2,350979.29543941957,62.316,-149.5729,110677.0
2180.0,AK,Nome Census Area,20.7,7.7,9,,64.9111,-164.0274,9925.0
2185.0,AK,North Slope Borough,12.0,4.9,9,231068.3048905426,69.3119,-153.4813,10891.0
2188.0,AK,Northwest Arctic Borough,19.1,9.6,9,,67.0598,-159.7062,7611.0
2195.0,AK,Petersburg Borough,8.4,5.1,9,316054.8446618587,57.1204,-132.934,3394.0
2198.0,AK,Prince of Wales-Hyder Census Area,15.7,6.7,9,,55.8011,-133.0167,5730.0
2220.0,AK,Sitka Borough,9.3,3.0,7,495943.83671110583,57.2424,-135.3145,8393.0
2230.0,AK,Skagway Municipality,5.9,5.8,9,,59.563,-135.3363,1308.0
2240.0,AK,Southeast Fairbanks Census Area,12.2,5.2,9,309731.5934442346,63.8762,-143.213,6936.0
2261.0,,,,,,324967.2945810889,,,
2275.0,AK,Wrangell City and Borough,11.7,4.9,9,281056.2561370749,56.3323,-132.0221,2106.0
2282.0,AK,Yakutat Borough,15.3,6.0,9,,59.8889,-140.3577,506.0
2290.0,AK,Yukon-Koyukuk Census Area,21.9,9.0,8,,65.5087,-151.3896,5271.0
4001.0,AZ,Apache County,29.6,7.9,8,290524.2238540183,35.3955,-109.4888,65680.0
4003.0,AZ,Cochise County,16.3,4.5,3,243798.76370669535,31.8796,-109.7512,125458.0
4005.0,AZ,Coconino County,17.8,4.2,3,586017.1452365286,35.8387,-111.7705,144643.0
4007.0,AZ,Gila County,17.7,4.3,4,359309.53116886714,33.7997,-110.8116,53610.0
4009.0,AZ,Graham County,17.3,3.7,7,264310.49451957,32.9326,-109.8875,38860.0
4011.0,AZ,Greenlee County,9.7,2.9,9,155592.70682799324,33.2152,-109.2402,9452.0
4012.0,AZ,La Paz County,18.7,4.8,6,275184.74505994143,33.7294,-113.9815,16605.0
4013.0,AZ,Maricopa County,11.1,3.4,1,456931.1289071363,33.349,-112.4915,4491987.0
4015.0,AZ,Mohave County,16.8,4.5,3,349119.32729115186,35.7041,-113.7579,217420.0
4017.0,AZ,Navajo County,24.7,5.7,4,370662.1652277205,35.3996,-110.3214,107744.0
4019.0,AZ,Pima County,14.0,3.8,1,336492.5794714258,32.0974,-111.7899,1049947.0
4021.0,AZ,Pinal County,11.8,4.1,1,368386.03597452183,32.9044,-111.3448,449219.0
4023.0,AZ,Santa Cruz County,20.1,7.6,6,257425.7578018171,31.526,-110.8465,48209.0
4025.0,AZ,Yavapai County,12.8,3.6,3,481519.0816974919,34.5998,-112.5537,241656.0
4027.0,AZ,Yuma County,15.9,13.2,3,263757.2425812543,32.7695,-113.9056,207685.0
5001.0,AR,Arkansas County,16.8,2.7,6,113723.54082441918,34.2892,-91.3742,16773.0
5003.0,AR,Ashley County,18.4,5.6,7,82479.03878748008,33.1912,-91.7685,18722.0
5005.0,AR,Baxter County,16.0,3.6,7,214674.8351883342,36.2872,-92.3369,42150.0
5007.0,AR,Benton County,7.8,2.4,2,339839.1860777214,36.3387,-94.2561,294541.0
5009.0,AR,Boone County,14.9,3.1,7,197573.44239498908,36.3086,-93.0915,37896.0
5011.0,AR,Bradley County,23.2,4.6,7,101920.87557680398,33.4664,-92.1624,10354.0
5013.0,AR,Calhoun County,14.3,2.9,9,127132.6579154949,33.5581,-92.503,4717.0
5015.0,AR,Carroll County,14.8,2.9,6,236037.39695455384,36.341,-93.5382,28526.0
5017.0,AR,Chicot County,29.7,5.8,9,89827.55726006466,33.267,-91.2937,9997.0
5019.0,AR,Clark County,18.9,4.7,7,143496.9517797317,34.051,-93.1764,21378.0
5021.0,AR,Clay County,17.5,4.1,9,100062.58096933794,36.3683,-90.4173,14399.0
5023.0,AR,Cleburne County,13.5,3.9,6,232688.23682930256,35.5382,-92.0267,25048.0
5025.0,AR,Cleveland County,15.7,3.5,8,150342.7291670483,33.8984,-92.1852,7491.0
5027.0,AR,Columbia County,23.3,4.3,7,135618.16066642644,33.2143,-93.2273,22527.0
5029.0,AR,Conway County,17.1,3.8,6,153736.99476280838,35.2624,-92.7014,20872.0
5031.0,AR,Craighead County,16.1,2.7,3,199771.08795037025,35.8308,-90.6328,112097.0
5033.0,AR,Crawford County,13.3,3.4,3,186987.73129302592,35.5881,-94.2428,60792.0
5035.0,AR,Crittenden County,20.6,4.2,1,149928.17093004522,35.2057,-90.3078,47609.0
5037.0,AR,Cross County,19.1,3.4,6,135714.44927948253,35.2957,-90.7711,16681.0
5039.0,AR,Dallas County,19.6,3.9,8,93994.43988439202,33.9699,-92.6544,6351.0
5041.0,AR,Desha County,25.0,4.6,9,93274.13443947656,33.8309,-91.2551,11041.0
5043.0,AR,Drew County,20.6,4.2,7,151002.80326395578,33.5894,-91.72,17143.0
5045.0,AR,Faulkner County,12.9,2.9,2,234088.24681898527,35.147,-92.332,126001.0
5047.0,AR,Franklin County,19.0,3.2,8,156459.9078890724,35.5124,-93.8906,17220.0
5049.0,AR,Fulton County,17.5,3.8,9,175381.6044593502,36.3817,-91.8182,12239.0
5051.0,AR,Garland County,18.9,3.7,3,232363.4673551529,34.5767,-93.1504,100062.0
5053.0,AR,Grant County,11.1,2.9,2,194340.3984576414,34.29,-92.4237,18111.0
5055.0,AR,Greene County,16.2,3.3,4,175310.70205337412,36.1176,-90.5591,46182.0
5057.0,AR,Hempstead County,16.6,3.4,6,113030.46266170396,33.7354,-93.6684,19778.0
5059.0,AR,Hot Spring County,16.9,3.5,6,153395.78126464385,34.3177,-92.9461,33142.0
5061.0,AR,Howard County,17.8,3.5,8,146839.75263345946,34.0889,-93.9936,12701.0
5063.0,AR,Independence County,13.5,3.4,7,160254.59392729335,35.7416,-91.5697,38120.0
5065.0,AR,Izard County,20.3,5.1,9,155749.92000767082,36.0949,-91.9134,13866.0
5067.0,AR,Jackson County,24.6,5.1,6,87388.95768408377,35.5992,-91.2145,16775.0
5069.0,AR,Jefferson County,24.3,4.6,4,86515.1341012923,34.2683,-91.9304,65780.0
5071.0,AR,Johnson County,17.1,4.4,7,166421.7576038808,35.5697,-93.4602,25932.0
5073.0,AR,Lafayette County,22.8,4.9,8,96064.1150311789,33.2416,-93.607,6211.0
5075.0,AR,Lawrence County,18.3,3.4,6,116637.67829237288,36.0412,-91.107,16265.0
5077.0,AR,Lee County,38.7,5.2,8,100221.92546968072,34.7805,-90.7808,8511.0
5079.0,AR,Lincoln County,26.2,4.0,9,115514.25077083231,33.957,-91.7344,12966.0
5081.0,AR,Little River County,17.7,3.5,3,135592.5061314014,33.7009,-94.2352,11959.0
5083.0,AR,Logan County,16.6,4.0,8,149473.70344371648,35.2149,-93.7166,21240.0
5085.0,AR,Lonoke County,9.6,2.7,2,211716.5140345672,34.7543,-91.8888,74747.0
5087.0,AR,Madison County,14.8,2.6,2,228784.2240603065,36.011,-93.7246,17032.0
5089.0,AR,Marion County,17.4,4.1,9,205524.03570918,36.2684,-92.6842,17076.0
5091.0,AR,Miller County,21.5,3.6,3,161009.31559837994,33.3124,-93.8921,42588.0
5093.0,AR,Mississippi County,24.9,4.9,4,84890.21274755879,35.7624,-90.0522,39749.0
5095.0,AR,Monroe County,26.3,3.9,9,84476.88634334292,34.6778,-91.2039,6681.0
5097.0,AR,Montgomery County,18.8,4.9,8,175358.9128377927,34.5389,-93.6596,8571.0
5099.0,AR,Nevada County,23.2,3.7,9,,33.664,-93.3072,8228.0
5101.0,AR,Newton County,18.8,3.4,9,197620.00860749074,35.92,-93.2179,7175.0
5103.0,AR,Ouachita County,18.8,3.9,7,91778.89045564285,33.5934,-92.8819,22317.0
5105.0,AR,Perry County,14.1,3.6,2,144574.6399197156,34.9475,-92.9313,10073.0
5107.0,AR,Phillips County,34.2,6.5,7,53560.39176508701,34.4274,-90.8489,15910.0
5109.0,AR,Pike County,18.2,3.5,9,168080.86788847728,34.1635,-93.6564,10182.0
5111.0,AR,Poinsett County,19.1,3.3,3,110949.87824050206,35.574,-90.663,22740.0
5113.0,AR,Polk County,18.8,3.6,7,165767.17308131605,34.4858,-94.2282,19348.0
5115.0,AR,Pope County,13.5,3.9,5,187402.05565219626,35.4479,-93.0345,63830.0
5117.0,AR,Prairie County,15.4,3.1,8,128321.43316937334,34.8297,-91.5528,8162.0
5119.0,AR,Pulaski County,15.7,3.2,2,190596.1720705247,34.77,-92.312,398949.0
5121.0,AR,Randolph County,18.5,3.5,7,134761.97634628986,36.3415,-91.0276,18733.0
5123.0,AR,St. Francis County,34.3,5.0,6,77004.54951735122,35.022,-90.7478,22740.0
5125.0,AR,Saline County,9.3,2.7,2,237449.3258573508,34.6466,-92.6766,125724.0
5127.0,AR,Scott County,19.5,3.0,8,145310.53960665356,34.8607,-94.0633,9839.0
5129.0,AR,Searcy County,20.2,4.3,9,161177.391629873,35.911,-92.6995,7861.0
5131.0,AR,Sebastian County,12.8,3.4,3,179246.13594907848,35.1989,-94.2743,128448.0
5133.0,AR,Sevier County,18.7,3.8,6,147516.22984248123,33.9972,-94.2412,15797.0
5135.0,AR,Sharp County,19.7,3.9,9,146653.768089188,36.1612,-91.4798,17597.0
5137.0,AR,Stone County,17.7,4.1,9,178879.79729581487,35.8599,-92.1568,12474.0
5139.0,AR,Union County,19.0,4.6,7,125870.4391111637,33.1713,-92.5972,38368.0
5141.0,AR,Van Buren County,16.5,4.0,8,156830.37577943827,35.5806,-92.5158,15936.0
5143.0,AR,Washington County,13.5,2.3,2,311212.27025478374,35.9791,-94.2156,251863.0
5145.0,AR,White County,15.7,3.5,4,184354.54882916063,35.2563,-91.7456,77395.0
5147.0,AR,Woodruff County,24.4,3.6,9,75970.8874343341,35.1863,-91.2431,6157.0
5149.0,AR,Yell County,16.5,3.7,9,156073.97945415182,35.0026,-93.4108,20195.0
6001.0,CA,Alameda County,9.5,4.1,1,1049011.4063563587,37.6469,-121.8887,1651949.0
6003.0,CA,Alpine County,15.6,6.5,8,498490.32515987346,38.5972,-119.8207,1695.0
6005.0,CA,Amador County,11.7,5.1,6,419678.0212611229,38.4464,-120.6511,41029.0
6007.0,CA,Butte County,19.9,5.2,3,392229.3410802379,39.6669,-121.6007,209470.0
6009.0,CA,Calaveras County,12.2,4.2,6,433537.84969185764,38.2046,-120.5541,45995.0
6011.0,CA,Colusa County,12.3,13.0,6,349014.55364162626,39.1775,-122.237,21895.0
6013.0,CA,Contra Costa County,8.3,4.1,1,787257.0543403333,37.9192,-121.9275,1161458.0
6015.0,CA,Del Norte County,13.8,5.7,7,350587.15467981034,41.7431,-123.8972,27293.0
6017.0,CA,El Dorado County,7.0,4.0,1,635331.3414814648,38.7787,-120.5247,192299.0
6019.0,CA,Fresno County,17.7,7.5,1,376904.928573446,36.7582,-119.6493,1012152.0
6021.0,CA,Glenn County,13.5,6.3,6,337378.95065719634,39.5981,-122.3919,28623.0
6023.0,CA,Humboldt County,16.7,4.6,5,453860.34405034815,40.6993,-123.8756,135418.0
6025.0,CA,Imperial County,17.3,17.3,3,323159.35492716875,33.0395,-115.3653,179319.0
6027.0,CA,Inyo County,11.8,3.8,6,481176.02060120273,36.5111,-117.4107,18803.0
6029.0,CA,Kern County,19.0,8.3,2,330872.8342057134,35.3426,-118.7301,910433.0
6031.0,CA,Kings County,17.5,8.2,3,326937.1100725074,36.0752,-119.8155,152830.0
6033.0,CA,Lake County,17.6,5.8,4,316230.2716806934,39.1,-122.7534,68139.0
6035.0,CA,Lassen County,17.1,5.2,7,227572.5740152413,40.6736,-120.5943,31177.0
6037.0,CA,Los Angeles County,13.7,5.0,1,815764.9920542663,34.3219,-118.2247,9848406.0
6039.0,CA,Madera County,18.0,7.5,1,388373.6003911047,37.218,-119.7627,158790.0
6041.0,CA,Marin County,8.7,3.3,1,1391962.8278450535,38.0735,-122.7236,258765.0
6043.0,CA,Mariposa County,17.3,5.1,8,389426.6138170924,37.5815,-119.9054,17060.0
6045.0,CA,Mendocino County,13.9,4.7,4,524487.8085215642,39.4402,-123.3915,90709.0
6047.0,CA,Merced County,18.6,9.0,2,390990.8577972275,37.1919,-120.7177,285597.0
6049.0,CA,Modoc County,20.1,6.3,8,179348.32248484858,41.5898,-120.725,8646.0
6051.0,CA,Mono County,7.8,3.8,7,713769.3833478141,37.9391,-118.8868,13169.0
6053.0,CA,Monterey County,14.0,7.0,2,787625.3145091799,36.2171,-121.2388,435834.0
6055.0,CA,Napa County,8.9,3.5,3,876609.7723254769,38.507,-122.3306,136070.0
6057.0,CA,Nevada County,10.9,3.9,4,607165.8444028543,39.3013,-120.7689,102452.0
6059.0,CA,Orange County,9.2,3.6,1,1006627.5355350344,33.7031,-117.7609,3164063.0
6061.0,CA,Placer County,6.5,3.7,1,659065.1119634467,39.0634,-120.7177,412435.0
6063.0,CA,Plumas County,12.7,7.3,9,373854.0129012453,40.0046,-120.8385,19607.0
6065.0,CA,Riverside County,11.3,4.8,1,574613.0703160214,33.7436,-115.9938,2449909.0
6067.0,CA,Sacramento County,11.9,4.4,1,509457.96029443946,38.4493,-121.3443,1584047.0
6069.0,CA,San Benito County,9.1,6.0,1,756546.0706206064,36.6057,-121.075,66056.0
6071.0,CA,San Bernardino County,13.2,4.7,1,512984.84102024406,34.8414,-116.1785,2187816.0
6073.0,CA,San Diego County,10.1,3.9,1,858380.8504971806,33.0343,-116.735,3282782.0
6075.0,CA,San Francisco County,11.9,3.3,1,1239592.6890717729,37.7556,-122.445,836321.0
6077.0,CA,San Joaquin County,12.6,6.2,2,518826.63735549396,37.9348,-121.2714,787416.0
6079.0,CA,San Luis Obispo County,12.8,3.5,2,841528.9506769436,35.3871,-120.4043,281486.0
6081.0,CA,San Mateo County,7.3,3.0,1,1485966.8214561043,37.4228,-122.3291,745100.0
6083.0,CA,Santa Barbara County,14.9,4.1,2,900337.2461041997,34.6729,-120.0169,443975.0
6085.0,CA,Santa Clara County,7.6,3.5,1,1424512.770810865,37.2318,-121.6951,1903297.0
6087.0,CA,Santa Cruz County,12.6,5.7,2,1112104.17329028,37.0562,-122.0018,266021.0
6089.0,CA,Shasta County,13.2,5.1,3,359406.7711265527,40.7637,-122.0405,181554.0
6091.0,CA,Sierra County,12.6,4.7,8,317606.2532426236,39.5803,-120.5161,2731.0
6093.0,CA,Siskiyou County,17.1,6.4,7,282103.6933472653,41.5927,-122.5404,43834.0
6095.0,CA,Solano County,10.3,4.7,2,570518.560989991,38.27,-121.9328,450824.0
6097.0,CA,Sonoma County,9.1,3.6,2,777500.1076929906,38.529,-122.8882,485642.0
6099.0,CA,Stanislaus County,12.6,6.4,2,440032.9024719888,37.5591,-120.9977,552250.0
6101.0,CA,Sutter County,15.3,7.8,3,418222.85792227427,39.0346,-121.6948,98971.0
6103.0,CA,Tehama County,15.0,5.8,4,303742.1971899602,40.1256,-122.2341,65520.0
6105.0,CA,Trinity County,20.8,5.7,8,300093.3749937118,40.6507,-123.1126,15886.0
6107.0,CA,Tulare County,17.5,10.0,2,329422.49079155386,36.2202,-118.8005,475774.0
6109.0,CA,Tuolumne County,10.5,5.0,4,395836.0723906087,38.0276,-119.9548,54873.0
6111.0,CA,Ventura County,9.8,4.3,2,814012.2951188036,34.4561,-119.0836,838259.0
6113.0,CA,Yolo County,15.3,4.7,1,592070.4644568003,38.6866,-121.9011,217782.0
6115.0,CA,Yuba County,15.4,6.7,3,394737.6430240347,39.269,-121.3513,83079.0
8001.0,CO,Adams County,9.7,3.4,1,485774.1113394664,39.8736,-104.3379,524408.0
8003.0,CO,Alamosa County,21.7,3.7,7,280232.00451305456,37.5729,-105.7883,16515.0
8005.0,CO,Arapahoe County,10.1,3.1,1,521702.1339805148,39.6498,-104.3393,655709.0
8007.0,CO,Archuleta County,11.2,3.2,7,544567.935723374,37.1935,-107.0483,13730.0
8009.0,CO,Baca County,20.2,2.0,9,,37.3192,-102.5604,3460.0
8011.0,CO,Bent County,28.6,3.0,9,125263.33536568956,37.9551,-103.0717,5524.0
8013.0,CO,Boulder County,11.0,2.8,2,723925.3126708323,40.0925,-105.3577,328317.0
8014.0,CO,Broomfield County,5.1,3.0,1,631172.159664902,39.9541,-105.0527,75110.0
8015.0,CO,Chaffee County,9.4,3.0,6,642092.0178902827,38.747,-106.1941,19876.0
8017.0,CO,Cheyenne County,13.3,2.1,9,174874.32062434492,38.8279,-102.6036,1732.0
8019.0,CO,Clear Creek County,7.7,2.8,1,563727.083096499,39.6891,-105.6444,9358.0
8021.0,CO,Conejos County,18.1,3.3,9,205275.5498106862,37.2007,-106.1916,7536.0
8023.0,CO,Costilla County,22.6,4.4,9,198187.53560445784,37.2781,-105.4282,3571.0
8025.0,CO,Crowley County,37.5,4.2,8,140544.54512085952,38.3266,-103.7845,5734.0
8027.0,CO,Custer County,11.8,3.2,8,382614.43716112146,38.1087,-105.3675,5073.0
8029.0,CO,Delta County,12.9,3.6,6,368707.59150189726,38.8614,-107.8629,31353.0
8031.0,CO,Denver County,10.5,3.3,1,557938.93669702,39.762,-104.8758,713734.0
8033.0,CO,Dolores County,13.5,2.9,9,271760.249493839,37.7517,-108.5174,2385.0
8035.0,CO,Douglas County,3.7,2.9,1,703279.9866490853,39.3298,-104.9293,368283.0
8037.0,CO,Eagle County,6.6,2.6,5,1211787.498991156,39.6278,-106.6953,55374.0
8039.0,CO,Elbert County,5.8,2.6,1,658811.5089168833,39.2865,-104.1357,27152.0
8041.0,CO,El Paso County,7.3,3.3,2,447933.0358027224,38.8321,-104.5254,736008.0
8043.0,CO,Fremont County,18.4,4.9,4,323636.499462376,38.4731,-105.4395,49394.0
8045.0,CO,Garfield County,9.1,2.9,5,620621.6140205953,39.5993,-107.904,62034.0
8047.0,CO,Gilpin County,7.2,2.7,1,531427.7616971146,39.8575,-105.5226,5877.0
8049.0,CO,Grand County,8.2,2.7,9,749523.5833149196,40.1026,-106.1183,15794.0
8051.0,CO,Gunnison County,10.7,2.6,7,671749.6533783767,38.6667,-107.0316,17158.0
8053.0,CO,Hinsdale County,5.3,2.9,9,421742.88096448407,37.8213,-107.3003,939.0
8055.0,CO,Huerfano County,18.3,5.8,8,253233.31600114165,37.6847,-104.9606,6946.0
8057.0,CO,Jackson County,13.3,2.2,9,,40.6664,-106.3428,1422.0
8059.0,CO,Jefferson County,7.4,2.9,1,603979.1560204736,39.5864,-105.2505,579715.0
8061.0,CO,Kiowa County,13.6,2.2,9,125349.1454042158,38.4326,-102.7402,1356.0
8063.0,CO,Kit Carson County,12.3,1.8,9,215886.833026888,39.3055,-102.603,7015.0
8065.0,CO,Lake County,11.4,2.5,9,468509.10052477126,39.2025,-106.3448,7411.0
8067.0,CO,La Plata County,11.5,3.0,6,621067.2713619276,37.2866,-107.8433,56088.0
8069.0,CO,Larimer County,10.2,2.8,2,540575.2151399818,40.6664,-105.4611,363561.0
8071.0,CO,Las Animas County,17.1,5.0,7,241567.3661483864,37.3158,-104.0386,14392.0
8073.0,CO,Lincoln County,14.8,2.8,8,240130.4443518804,38.9881,-103.514,5561.0
8075.0,CO,Logan County,14.0,2.7,6,237684.42265949494,40.7247,-103.1101,21067.0
8077.0,CO,Mesa County,11.9,3.5,3,381434.0513983475,39.0183,-108.4664,157316.0
8079.0,CO,Mineral County,9.7,2.5,9,390886.9112537172,37.6689,-106.9241,799.0
8081.0,CO,Moffat County,10.8,3.2,7,269487.5561818824,40.6184,-108.2074,13258.0
8083.0,CO,Montezuma County,14.0,4.0,6,373864.15303840116,37.3386,-108.5966,26204.0
8085.0,CO,Montrose County,10.7,3.3,5,404932.4480387909,38.4022,-108.2692,43272.0
8087.0,CO,Morgan County,12.5,3.0,6,327140.2196198527,40.2627,-103.8097,29186.0
8089.0,CO,Otero County,20.1,4.1,6,151760.56469493938,37.9026,-103.7165,18460.0
8091.0,CO,Ouray County,7.4,3.2,9,748732.5324244446,38.1555,-107.7693,5024.0
8093.0,CO,Park County,8.1,2.8,1,522551.67971053807,39.1194,-105.7172,17739.0
8095.0,CO,Phillips County,12.1,2.2,9,235638.15416892382,40.594,-102.3576,4491.0
8097.0,CO,Pitkin County,6.4,3.3,7,2161085.178172697,39.2171,-106.9166,17119.0
8099.0,CO,Prowers County,20.1,2.8,7,159181.69930649287,37.9552,-102.3934,11931.0
8101.0,CO,Pueblo County,13.5,4.4,3,285879.33588911965,38.1735,-104.5127,168726.0
8103.0,CO,Rio Blanco County,10.8,3.3,9,277697.57837848493,39.9798,-108.2171,6518.0
8105.0,CO,Rio Grande County,17.8,4.0,9,270446.0163801936,37.5825,-106.3832,11394.0
8107.0,CO,Routt County,5.6,2.5,7,1001874.9200572369,40.4851,-106.9913,24990.0
8109.0,CO,Saguache County,20.6,3.5,9,267300.42285201675,38.0805,-106.2815,6511.0
8111.0,CO,San Juan County,12.3,2.6,9,506275.46313432953,37.764,-107.6762,690.0
8113.0,CO,San Miguel County,7.9,3.2,9,1475025.953549561,38.0038,-108.4059,8026.0
8115.0,CO,Sedgwick County,14.7,3.1,9,147657.73921520307,40.8759,-102.3518,2346.0
8117.0,CO,Summit County,7.3,2.3,5,968901.6621676036,39.6342,-106.1164,30857.0
8119.0,CO,Teller County,8.3,3.0,2,463708.0509617292,38.8824,-105.1617,24774.0
8121.0,CO,Washington County,14.2,2.3,9,218084.35953040145,39.971,-103.2013,4839.0
8123.0,CO,Weld County,9.1,3.3,2,491305.4019627962,40.5548,-104.3925,340711.0
8125.0,CO,Yuma County,12.7,2.0,9,241830.085854883,40.0029,-102.4243,9921.0
9001.0,,,,,,570435.466796601,,,
9003.0,,,,,,310562.98378010263,,,
9005.0,,,,,,353340.6697876142,,,
9007.0,,,,,,372701.2141751384,,,
9009.0,,,,,,331122.3439016296,,,
9011.0,,,,,,341253.1957493889,,,
9013.0,,,,,,331986.4655874897,,,
9015.0,,,,,,300896.3229568837,,,
9110.0,CT,Capitol Planning Region,9.8,,1,,41.8185,-72.572,969029.0
9120.0,CT,Greater Bridgeport Planning Region,11.3,,2,,41.2428,-73.2314,326296.0
9130.0,CT,Lower Connecticut River Valley Planning Region,7.1,,1,,41.45,-72.5073,174983.0
9140.0,CT,Naugatuck Valley Planning Region,11.4,,2,,41.5231,-73.086,452303.0
9150.0,CT,Northeastern Connecticut Planning Region,7.6,,4,,41.827,-71.9769,95829.0
9160.0,CT,Northwest Hills Planning Region,8.4,,4,,41.8469,-73.2212,112848.0
9170.0,CT,South Central Connecticut Planning Region,12.5,,2,,41.3613,-72.8445,566803.0
9180.0,CT,Southeastern Connecticut Planning Region,12.4,,2,,41.5023,-72.1,279025.0
9190.0,CT,Western Connecticut Planning Region,8.0,,2,,41.3225,-73.4475,621232.0
10001.0,DE,Kent County,11.7,4.5,3,325294.67361448216,39.086,-75.5686,185043.0
10003.0,DE,New Castle County,10.9,3.9,1,326210.35493557196,39.5768,-75.6527,573030.0
10005.0,DE,Sussex County,10.1,3.8,4,465255.40871032595,38.6606,-75.39,247799.0
11001.0,DC,District of Columbia,15.2,4.9,1,621115.9055363459,38.9047,-77.0163,672079.0
12001.0,FL,Alachua County,18.5,3.1,2,291913.048194359,29.6747,-82.3577,281751.0
12003.0,FL,Baker County,12.5,2.9,1,293260.8223396697,30.3311,-82.2846,28186.0
12005.0,FL,Bay County,11.8,2.8,3,347620.4512876092,30.2652,-85.6203,181368.0
12007.0,FL,Bradford County,15.4,3.1,6,221411.56779182193,29.95,-82.1687,27888.0
12009.0,FL,Brevard County,10.3,3.0,2,347671.4518441111,28.2937,-80.7323,620533.0
12011.0,FL,Broward County,12.7,2.9,1,419410.4650780954,26.1523,-80.4871,1946127.0
12013.0,FL,Calhoun County,22.9,3.3,8,169646.6331841269,30.406,-85.1972,13593.0
12015.0,FL,Charlotte County,9.1,3.5,3,357939.0320385181,26.9058,-81.9114,195083.0
12017.0,FL,Citrus County,15.7,4.5,3,277034.5008180439,28.8489,-82.4794,158693.0
12019.0,FL,Clay County,7.9,2.9,1,334852.76265662536,29.9831,-81.8579,223436.0
12021.0,FL,Collier County,10.5,2.9,2,598789.0246627704,26.1108,-81.3474,387681.0
12023.0,FL,Columbia County,17.0,3.4,4,247268.33981424305,30.2242,-82.6215,70755.0
12027.0,FL,DeSoto County,18.8,3.6,6,247587.2081551617,27.1864,-81.8095,34719.0
12029.0,FL,Dixie County,23.7,3.6,8,191629.13535207062,29.6086,-83.1587,16952.0
12031.0,FL,Duval County,14.5,3.1,1,300081.75499135343,30.3313,-81.6715,1007189.0
12033.0,FL,Escambia County,14.0,3.1,2,268597.92701862636,30.669,-87.363,323275.0
12035.0,FL,Flagler County,8.9,3.7,2,373283.8454648623,29.4614,-81.3136,121710.0
12037.0,FL,Franklin County,16.6,2.9,8,418620.76253413013,29.8766,-84.8137,12418.0
12039.0,FL,Gadsden County,21.5,3.9,2,181900.75133864424,30.5795,-84.6136,43642.0
12041.0,FL,Gilchrist County,13.5,3.3,2,284276.44506811287,29.7258,-82.8004,18494.0
12043.0,FL,Glades County,16.9,3.8,8,243309.13036850136,26.9564,-81.189,12324.0
12045.0,FL,Gulf County,14.9,2.7,8,395975.3028037977,29.9565,-85.2263,14772.0
12047.0,FL,Hamilton County,21.9,4.3,8,186055.38150302393,30.4964,-82.9479,13445.0
12049.0,FL,Hardee County,20.5,4.1,6,202542.88582949428,27.4927,-81.81,25508.0
12051.0,FL,Hendry County,22.1,4.8,4,257588.41791455296,26.5535,-81.1659,40798.0
12053.0,FL,Hernando County,12.1,3.8,1,311337.4717997769,28.5537,-82.424,201512.0
12055.0,FL,Highlands County,18.6,4.3,3,231965.70055440854,27.3433,-81.341,103808.0
12057.0,FL,Hillsborough County,13.2,2.9,1,382020.877317288,27.9292,-82.3088,1489634.0
12059.0,FL,Holmes County,18.2,3.2,8,184359.053716778,30.8679,-85.814,19626.0
12061.0,FL,Indian River County,11.3,3.5,3,374226.6881658387,27.6943,-80.6064,163856.0
12063.0,FL,Jackson County,20.6,3.4,6,168312.36686435036,30.7954,-85.2155,47652.0
12065.0,FL,Jefferson County,23.5,3.2,2,272555.05022380437,30.4375,-83.8953,14713.0
12067.0,FL,Lafayette County,18.9,3.3,9,234675.89193345062,29.9855,-83.1811,8035.0
12069.0,FL,Lake County,10.7,3.1,1,359733.16554382653,28.7615,-81.7113,398696.0
12071.0,FL,Lee County,12.1,3.2,2,394768.75949573645,26.578,-81.8332,792692.0
12073.0,FL,Leon County,17.6,3.1,2,275036.6376924912,30.458,-84.2779,295335.0
12075.0,FL,Levy County,18.3,3.5,2,276331.2626963072,29.3184,-82.7434,44276.0
12077.0,FL,Liberty County,20.8,3.3,8,176305.91735511128,30.2413,-84.8829,7650.0
12079.0,FL,Madison County,19.8,3.3,8,200150.6443348007,30.4441,-83.4701,18113.0
12081.0,FL,Manatee County,10.4,3.0,2,453809.2818669005,27.4719,-82.3153,416020.0
12083.0,FL,Marion County,15.0,3.6,2,277704.5168555281,29.2102,-82.0567,387697.0
12085.0,FL,Martin County,13.1,2.9,2,465785.5562020987,27.0775,-80.4315,160464.0
12086.0,FL,Miami-Dade County,14.1,1.8,1,492755.64942906017,25.615,-80.5624,2685296.0
12087.0,FL,Monroe County,10.0,1.9,4,981048.5409753907,25.3192,-81.1089,81840.0
12089.0,FL,Nassau County,9.5,2.8,1,465239.65968289785,30.6107,-81.8019,94653.0
12091.0,FL,Okaloosa County,10.1,2.6,2,356938.9659180869,30.6913,-86.5917,214281.0
12093.0,FL,Okeechobee County,17.0,3.2,4,258348.36803001503,27.3864,-80.8886,40249.0
12095.0,FL,Orange County,12.4,2.8,1,393993.46239754226,28.5144,-81.3235,1440471.0
12097.0,FL,Osceola County,10.9,3.4,1,376164.4039718389,28.0626,-81.1495,406943.0
12099.0,FL,Palm Beach County,10.8,3.0,1,473126.74361964077,26.6476,-80.4655,1507453.0
12101.0,FL,Pasco County,10.5,3.3,1,341969.1218717946,28.3092,-82.392,588758.0
12103.0,FL,Pinellas County,11.3,2.8,1,389119.42849241634,27.9198,-82.7255,960565.0
12105.0,FL,Polk County,13.0,3.7,2,309483.36891576345,27.9489,-81.6976,760961.0
12107.0,FL,Putnam County,21.1,4.0,4,202979.75744300496,29.6087,-81.7443,74235.0
12109.0,FL,St. Johns County,6.1,2.7,1,511611.1697864471,29.9016,-81.4407,292243.0
12111.0,FL,St. Lucie County,10.4,3.5,2,376303.822795665,27.3773,-80.4721,346237.0
12113.0,FL,Santa Rosa County,8.1,2.8,2,345474.3392502106,30.7004,-87.0219,193719.0
12115.0,FL,Sarasota County,9.5,3.0,2,457287.94288119365,27.1845,-82.3315,449011.0
12117.0,FL,Seminole County,9.2,2.8,1,394535.9812924548,28.717,-81.2363,474912.0
12119.0,FL,Sumter County,9.7,4.2,3,406625.6206645801,28.7048,-82.081,137536.0
12121.0,FL,Suwannee County,17.3,3.4,6,249049.06528467993,30.1956,-82.9915,44484.0
12123.0,FL,Taylor County,19.7,3.4,6,185671.8322765264,30.047,-83.6035,21422.0
12125.0,FL,Union County,19.4,3.0,8,252400.36692537583,30.0439,-82.3714,15551.0
12127.0,FL,Volusia County,11.9,3.3,2,328002.2791387367,29.0584,-81.1819,568229.0
12129.0,FL,Wakulla County,10.4,2.7,2,283405.2528415377,30.1673,-84.4007,34608.0
12131.0,FL,Walton County,10.9,2.8,2,696529.0604629972,30.6436,-86.1697,79846.0
12133.0,FL,Washington County,16.8,3.3,3,205111.624321753,30.6106,-85.6653,25259.0
13001.0,GA,Appling County,21.1,3.4,7,145066.5458669933,31.7492,-82.2889,18426.0
13003.0,GA,Atkinson County,22.4,3.1,9,120279.50422702226,31.2971,-82.8801,8261.0
13005.0,GA,Bacon County,22.9,2.9,9,131089.59581825923,31.5537,-82.4527,11129.0
13007.0,GA,Baker County,26.2,3.8,8,114987.51721118481,31.3261,-84.4447,2830.0
13009.0,GA,Baldwin County,21.4,4.2,4,178406.30248987037,33.0693,-83.2495,43669.0
13011.0,GA,Banks County,12.2,2.2,8,305561.0547210208,34.3543,-83.4972,18757.0
13013.0,GA,Barrow County,11.2,2.8,1,322901.47426621814,33.9932,-83.7127,86982.0
13015.0,GA,Bartow County,9.7,3.1,1,300564.7359848406,34.2377,-84.8403,111153.0
13017.0,GA,Ben Hill County,24.4,4.3,7,109122.64494138291,31.7598,-83.2205,17138.0
13019.0,GA,Berrien County,18.8,3.7,8,158568.25458255698,31.276,-83.2296,18257.0
13021.0,GA,Bibb County,22.1,4.0,3,153260.32594139435,32.8065,-83.6974,156543.0
13023.0,GA,Bleckley County,18.2,4.2,6,152619.55905245774,32.4345,-83.3278,12414.0
13025.0,GA,Brantley County,17.8,3.5,3,138587.71040393302,31.1969,-81.9819,18171.0
13027.0,GA,Brooks County,22.8,3.4,3,154296.47108977532,30.842,-83.5802,16285.0
13029.0,GA,Bryan County,8.2,2.6,2,358991.96087754634,32.0145,-81.4436,46681.0
13031.0,GA,Bulloch County,23.7,3.4,4,239736.96283977464,32.3968,-81.7432,81372.0
13033.0,GA,Burke County,21.2,5.5,2,144339.4734151326,33.0611,-82.0007,24427.0
13035.0,GA,Butts County,15.5,2.9,1,260914.81054679834,33.2879,-83.9572,26074.0
13037.0,GA,Calhoun County,35.5,2.8,8,87198.10043104133,31.5292,-84.6245,5528.0
13039.0,GA,Camden County,11.6,3.0,4,274079.01139722834,30.9306,-81.6699,56036.0
13043.0,GA,Candler County,21.5,2.5,9,165506.22248337712,32.4034,-82.0737,10972.0
13045.0,GA,Carroll County,14.3,3.3,1,271075.4495504187,33.5828,-85.0798,122187.0
13047.0,GA,Catoosa County,10.7,2.7,2,261712.31556432165,34.9036,-85.1382,68356.0
13049.0,GA,Charlton County,26.2,3.1,8,173358.27844616797,30.7817,-82.1379,12711.0
13051.0,GA,Chatham County,15.2,2.9,2,312953.9951896191,32.0043,-81.1329,298143.0
13053.0,GA,Chattahoochee County,16.3,4.5,2,113084.57872054048,32.347,-84.787,9181.0
13055.0,GA,Chattooga County,20.7,3.7,6,157369.8820875428,34.475,-85.3453,24975.0
13057.0,GA,Cherokee County,6.6,2.6,1,437316.9902486704,34.244,-84.4762,274539.0
13059.0,GA,Clarke County,24.1,3.3,3,291757.82330205175,33.9512,-83.3673,129267.0
13061.0,GA,Clay County,26.4,7.8,9,144274.50621197812,31.6262,-84.9801,2853.0
13063.0,GA,Clayton County,17.3,4.1,1,238162.90667023885,33.542,-84.3576,298771.0
13065.0,GA,Clinch County,23.3,2.8,8,107643.79253636643,30.915,-82.7063,6722.0
13067.0,GA,Cobb County,8.8,2.8,1,408766.9070958958,33.9416,-84.5767,769152.0
13069.0,GA,Coffee County,22.5,3.6,7,139522.0553770649,31.5493,-82.8492,43161.0
13071.0,GA,Colquitt County,23.4,2.8,6,128455.38366634479,31.1884,-83.7688,45907.0
13073.0,GA,Columbia County,6.8,3.0,2,303250.69636973314,33.5441,-82.2641,159638.0
13075.0,GA,Cook County,19.9,3.2,6,141714.46410385176,31.154,-83.4305,17363.0
13077.0,GA,Coweta County,9.9,2.9,1,368197.3706351734,33.3534,-84.7634,150071.0
13079.0,GA,Crawford County,15.8,3.2,3,173213.8953484533,32.7145,-83.9863,12183.0
13081.0,GA,Crisp County,26.0,3.7,6,122746.13880792014,31.9229,-83.7681,19995.0
13083.0,GA,Dade County,14.1,2.6,2,222457.0263122656,34.8546,-85.5044,16196.0
13085.0,GA,Dawson County,8.0,2.6,1,417584.0140490665,34.4443,-84.1706,28704.0
13087.0,GA,Decatur County,22.3,3.4,6,149139.99395177668,30.8783,-84.5791,29118.0
13089.0,GA,DeKalb County,13.3,3.3,1,332603.5470650219,33.7716,-84.2264,762105.0
13091.0,GA,Dodge County,23.5,3.8,7,129020.6948755628,32.1722,-83.1684,19909.0
13093.0,GA,Dooly County,22.5,3.8,8,115733.99016556164,32.1572,-83.7988,11026.0
13095.0,GA,Dougherty County,26.4,4.3,3,113316.61921577514,31.5335,-84.2164,83915.0
13097.0,GA,Douglas County,11.9,3.4,1,303527.5450577344,33.7019,-84.7679,146141.0
13099.0,GA,Early County,25.5,3.9,8,109600.10588745595,31.3228,-84.9037,10683.0
13101.0,GA,Echols County,21.6,2.8,3,150905.370346617,30.7101,-82.894,3705.0
13103.0,GA,Effingham County,8.5,2.6,2,301061.77975986997,32.3674,-81.3414,67265.0
13105.0,GA,Elbert County,18.0,3.6,6,149864.99390951617,34.1168,-82.8401,19725.0
13107.0,GA,Emanuel County,26.1,4.2,7,113224.51572468654,32.5897,-82.3017,22961.0
13109.0,GA,Evans County,23.7,2.9,8,145306.0285461168,32.1568,-81.8869,10740.0
13111.0,GA,Fannin County,13.9,2.8,8,461959.9833040895,34.8641,-84.3198,25605.0
13113.0,GA,Fayette County,5.8,3.0,1,454261.9940332234,33.4139,-84.4943,120689.0
13115.0,GA,Floyd County,17.0,3.2,3,207006.2474205554,34.2632,-85.2143,98985.0
13117.0,GA,Forsyth County,5.1,2.5,1,573425.3066603881,34.2255,-84.1251,260062.0
13119.0,GA,Franklin County,16.9,3.2,8,252508.17712781823,34.3754,-83.2291,23840.0
13121.0,GA,Fulton County,13.0,3.4,1,416452.583797582,33.7902,-84.467,1068507.0
13123.0,GA,Gilmer County,13.6,3.1,6,385423.4316090607,34.6912,-84.4556,31976.0
13125.0,GA,Glascock County,15.7,3.4,9,158823.5617423542,33.2293,-82.6107,2913.0
13127.0,GA,Glynn County,15.7,2.8,3,327140.3452535429,31.2309,-81.5407,84987.0
13129.0,GA,Gordon County,12.9,3.0,4,243765.9258941741,34.5032,-84.8759,58336.0
13131.0,GA,Grady County,19.7,3.1,6,174207.6661975127,30.8747,-84.2345,26056.0
13133.0,GA,Greene County,14.1,3.3,8,559881.4012542336,33.5788,-83.1667,19586.0
13135.0,GA,Gwinnett County,11.4,2.9,1,394841.4236150639,33.9619,-84.0236,966972.0
13137.0,GA,Habersham County,13.5,3.1,6,276465.4437830058,34.631,-83.5311,46948.0
13139.0,GA,Hall County,11.0,2.4,3,361046.68265856116,34.3171,-83.8195,208395.0
13141.0,GA,Hancock County,30.3,5.5,9,190474.06585685516,33.2704,-83.0007,8630.0
13143.0,GA,Haralson County,16.3,3.2,1,241312.21700467338,33.7942,-85.211,30720.0
13145.0,GA,Harris County,8.6,2.8,2,320736.5833689874,32.736,-84.9089,35509.0
13147.0,GA,Hart County,14.9,2.9,6,284761.24312326347,34.3509,-82.9642,26484.0
13149.0,GA,Heard County,16.5,3.1,1,226609.60149799215,33.297,-85.1283,11616.0
13151.0,GA,Henry County,10.3,3.5,1,326986.69951774983,33.453,-84.1542,245417.0
13153.0,GA,Houston County,12.8,2.9,3,225458.1199591823,32.459,-83.6662,166902.0
13155.0,GA,Irwin County,19.4,3.9,9,124040.7160644084,31.6022,-83.2764,9385.0
13157.0,GA,Jackson County,8.3,2.1,4,372411.67142526194,34.1339,-83.5664,80640.0
13159.0,GA,Jasper County,14.8,2.9,1,279807.1907248176,33.3165,-83.688,15345.0
13161.0,GA,Jeff Davis County,19.7,4.3,9,123172.64345214158,31.8056,-82.6368,14838.0
13163.0,GA,Jefferson County,22.5,4.0,8,105955.12679190075,33.0549,-82.4182,15468.0
13165.0,GA,Jenkins County,28.9,5.0,9,127797.44555739957,32.7924,-81.9635,8674.0
13167.0,GA,Johnson County,26.2,2.9,9,113156.45429349797,32.7015,-82.6601,9192.0
13169.0,GA,Jones County,12.7,3.1,3,221542.8840719513,33.0251,-83.5605,28526.0
13171.0,GA,Lamar County,14.2,3.4,6,246616.0951876452,33.0765,-84.1395,19098.0
13173.0,GA,Lanier County,17.5,3.8,3,181843.08890316635,31.0379,-83.0628,10094.0
13175.0,GA,Laurens County,19.2,4.1,4,164444.40363376055,32.4636,-82.9222,49619.0
13177.0,GA,Lee County,9.0,2.8,3,230314.67073700545,31.7796,-84.1412,33337.0
13179.0,GA,Liberty County,16.2,3.3,3,212209.42672756966,31.8282,-81.4949,66826.0
13181.0,GA,Lincoln County,15.1,3.8,2,212236.49479086802,33.7936,-82.4512,7773.0
13183.0,GA,Long County,15.1,3.2,3,252440.86310298962,31.7526,-81.7458,17512.0
13185.0,GA,Lowndes County,19.5,3.5,3,191832.77674411435,30.8338,-83.2677,119055.0
13187.0,GA,Lumpkin County,15.1,2.7,1,343269.80906014354,34.5722,-84.0027,33931.0
13189.0,GA,McDuffie County,19.1,4.9,2,169604.61754922447,33.4828,-82.4814,21687.0
13191.0,GA,McIntosh County,18.7,3.0,3,217526.5514005643,31.4963,-81.4103,11187.0
13193.0,GA,Macon County,31.6,4.2,8,81124.33819816967,32.3584,-84.0425,11953.0
13195.0,GA,Madison County,13.0,2.9,3,283172.789028074,34.1278,-83.209,30914.0
13197.0,GA,Marion County,24.2,3.6,2,130919.82163021652,32.3535,-84.5246,7474.0
13199.0,GA,Meriwether County,15.9,3.9,1,176780.20632371985,33.0406,-84.6883,20757.0
13201.0,GA,Miller County,21.1,2.7,9,128350.27900494768,31.164,-84.7308,5873.0
13205.0,GA,Mitchell County,23.8,3.7,6,123002.566963157,31.2253,-84.1943,21441.0
13207.0,GA,Monroe County,11.7,2.9,3,295024.8879161681,33.0139,-83.9187,28919.0
13209.0,GA,Montgomery County,20.7,3.9,9,162812.09058123676,32.1734,-82.5348,8675.0
13211.0,GA,Morgan County,11.2,2.8,1,407189.63622706954,33.5909,-83.4923,20614.0
13213.0,GA,Murray County,14.4,4.1,3,212030.0462843732,34.7884,-84.7481,40282.0
13215.0,GA,Muscogee County,20.7,4.2,2,155049.50543535815,32.51,-84.8771,204383.0
13217.0,GA,Newton County,11.8,3.8,1,289956.7682044689,33.555,-83.8502,115530.0
13219.0,GA,Oconee County,7.5,2.4,3,492564.3670291057,33.835,-83.4371,42788.0
13221.0,GA,Oglethorpe County,13.1,2.8,3,275115.49193269457,33.8807,-83.0807,15221.0
13223.0,GA,Paulding County,7.7,2.9,1,336856.67023140786,33.9206,-84.8673,174292.0
13225.0,GA,Peach County,17.3,3.8,3,206622.55060904945,32.5688,-83.8269,28269.0
13227.0,GA,Pickens County,10.1,2.7,1,353740.8918619548,34.4643,-84.4656,34197.0
13229.0,GA,Pierce County,16.2,3.1,8,166617.70670603527,31.3588,-82.2128,19996.0
13231.0,GA,Pike County,11.2,2.7,1,330607.0045187064,33.0923,-84.3892,19540.0
13233.0,GA,Polk County,17.3,3.3,4,199822.05280534114,34.0018,-85.1881,43365.0
13235.0,GA,Pulaski County,23.0,3.5,8,150865.95943834068,32.2323,-83.476,9893.0
13237.0,GA,Putnam County,15.6,3.8,8,376166.4736320757,33.3218,-83.3728,22524.0
13239.0,GA,Quitman County,23.7,5.2,8,109261.77953732872,31.8673,-85.0188,2092.0
13241.0,GA,Rabun County,13.0,3.0,9,365115.3856765006,34.8818,-83.402,17107.0
13243.0,GA,Randolph County,26.7,4.2,8,79985.92311651584,31.7626,-84.7542,6270.0
13245.0,GA,Richmond County,22.2,4.6,2,172183.8073059451,33.3596,-82.0736,206040.0
13247.0,GA,Rockdale County,13.0,3.7,1,305362.9844148602,33.6542,-84.0266,94293.0
13249.0,GA,Schley County,15.3,3.3,8,154182.1339602174,32.2617,-84.3148,4539.0
13251.0,GA,Screven County,22.5,5.2,8,159639.16583451035,32.7506,-81.612,14057.0
13253.0,GA,Seminole County,22.3,3.8,8,120425.70224425904,30.9388,-84.8688,9117.0
13255.0,GA,Spalding County,16.3,3.6,1,226966.08067818562,33.2609,-84.2841,68215.0
13257.0,GA,Stephens County,15.6,3.6,7,198242.8097413844,34.554,-83.2932,26842.0
13259.0,GA,Stewart County,32.5,3.3,2,67934.78027766991,32.0785,-84.8352,4978.0
13261.0,GA,Sumter County,26.3,4.5,6,114158.06058757739,32.0399,-84.197,29174.0
13263.0,GA,Talbot County,27.3,3.3,2,152549.35487263676,32.6995,-84.533,5753.0
13265.0,GA,Taliaferro County,24.5,3.8,8,150083.40380392625,33.5661,-82.8788,1740.0
13267.0,GA,Tattnall County,25.7,3.2,8,168152.77518304667,32.0458,-82.0581,24215.0
13269.0,GA,Taylor County,26.6,4.2,8,136727.82416401667,32.5555,-84.2505,7786.0
13271.0,GA,Telfair County,30.1,6.6,9,110307.92777736798,31.9298,-82.939,12174.0
13273.0,GA,Terrell County,28.1,4.5,3,101217.38864796696,31.777,-84.437,8941.0
13275.0,GA,Thomas County,18.4,3.5,4,194748.66827496732,30.8637,-83.9193,45696.0
13277.0,GA,Tift County,19.2,2.9,5,180913.8304625174,31.4574,-83.5266,41322.0
13279.0,GA,Toombs County,22.8,3.8,7,150557.24427982772,32.1216,-82.3312,26943.0
13281.0,GA,Towns County,11.6,4.2,9,368840.31938414805,34.9167,-83.7373,12739.0
13283.0,GA,Treutlen County,24.0,4.3,9,113903.17369552514,32.4039,-82.5673,6387.0
13285.0,GA,Troup County,18.1,2.8,4,200075.79474162564,33.0335,-85.0284,69821.0
13287.0,GA,Turner County,23.9,4.0,9,117163.42752183857,31.7164,-83.6241,8915.0
13289.0,GA,Twiggs County,21.3,4.9,3,94830.01300951642,32.6672,-83.4271,7869.0
13291.0,GA,Union County,10.7,2.8,8,349242.8991885261,34.8341,-83.9907,25598.0
13293.0,GA,Upson County,17.5,3.5,6,159432.09537231617,32.8813,-84.2994,27856.0
13295.0,GA,Walker County,15.1,3.0,2,209434.23991198366,34.7356,-85.301,68449.0
13297.0,GA,Walton County,10.1,3.0,1,360666.1342268061,33.7816,-83.7339,100361.0
13299.0,GA,Ware County,19.9,3.3,5,122772.09068697195,31.0538,-82.4237,35958.0
13301.0,GA,Warren County,24.2,4.1,8,99846.69496614927,33.4089,-82.6768,5175.0
13303.0,GA,Washington County,21.6,4.2,7,126339.5300499893,32.9695,-82.7959,19893.0
13305.0,GA,Wayne County,19.7,3.3,6,181051.0113077408,31.5515,-81.9168,30519.0
13307.0,GA,Webster County,20.7,3.6,8,131586.12133926488,32.0469,-84.5511,2348.0
13309.0,GA,Wheeler County,36.3,5.6,9,119019.83217328273,32.117,-82.7246,7434.0
13311.0,GA,White County,10.8,2.3,8,313772.9613950293,34.6464,-83.7471,28454.0
13313.0,GA,Whitfield County,15.5,3.9,3,218500.41060522475,34.8056,-84.9672,103118.0
13315.0,GA,Wilcox County,28.4,3.5,9,119237.36585701637,31.9729,-83.4323,8784.0
13317.0,GA,Wilkes County,17.8,3.7,8,147085.45803697684,33.7819,-82.7432,9553.0
13319.0,GA,Wilkinson County,20.6,3.8,8,112163.92807620847,32.8024,-83.1712,8795.0
13321.0,GA,Worth County,21.4,3.2,3,145148.98022540234,31.5515,-83.8509,20575.0
15001.0,HI,Hawaii County,16.5,3.0,5,549126.7496068896,19.5984,-155.5183,203684.0
15003.0,HI,Honolulu County,9.1,2.7,1,847439.3679841212,21.4899,-158.0739,1003666.0
15005.0,,,,,3,,21.1709,-156.9475,43.0
15007.0,HI,Kauai County,9.4,2.6,5,931529.101949927,22.04,-159.5961,73610.0
15009.0,HI,Maui County,9.4,4.4,3,1002261.3946334588,20.8596,-156.565,164632.0
16001.0,ID,Ada County,8.0,2.7,2,490129.7057619792,43.4511,-116.2412,508052.0
16003.0,ID,Adams County,12.2,6.0,9,456484.3196220855,44.8895,-116.4538,4599.0
16005.0,ID,Bannock County,11.9,3.1,3,320729.0424132382,42.6685,-112.2246,88457.0
16007.0,ID,Bear Lake County,10.1,2.8,9,362843.0841110476,42.2848,-111.3297,6552.0
16009.0,ID,Benewah County,13.0,5.0,8,319986.1817153487,47.2176,-116.6587,9913.0
16011.0,ID,Bingham County,11.1,3.1,6,337781.92180720984,43.2166,-112.3981,48993.0
16013.0,ID,Blaine County,6.9,2.7,7,896966.3983719797,43.4119,-113.9802,24579.0
16015.0,ID,Boise County,10.1,4.2,2,411361.592512092,43.9891,-115.7303,8045.0
16017.0,ID,Bonner County,10.5,4.3,6,598355.9805444592,48.3,-116.6011,49456.0
16019.0,ID,Bonneville County,10.2,2.6,3,369608.53085837816,43.3877,-111.6148,127056.0
16021.0,ID,Boundary County,11.5,4.7,9,446577.1373254719,48.7669,-116.4629,12695.0
16023.0,ID,Butte County,14.6,3.9,3,,43.7229,-113.172,2654.0
16025.0,ID,Camas County,8.2,3.2,9,331682.1283432922,43.4633,-114.8058,1155.0
16027.0,ID,Canyon County,10.1,3.4,2,388582.567968727,43.6251,-116.7093,242405.0
16029.0,ID,Caribou County,9.7,3.1,8,282735.18203119905,42.7705,-111.5623,7118.0
16031.0,ID,Cassia County,11.5,2.6,6,313667.87668271665,42.2839,-113.6001,25165.0
16033.0,ID,Clark County,15.3,3.2,8,219750.7926477675,44.2839,-112.3512,776.0
16035.0,ID,Clearwater County,14.5,5.7,8,282757.0760611333,46.6736,-115.6567,8921.0
16037.0,ID,Custer County,14.6,3.8,8,310428.0705575054,44.2411,-114.2817,4411.0
16039.0,ID,Elmore County,11.8,3.3,6,317907.6906692334,43.354,-115.4693,29046.0
16041.0,ID,Franklin County,7.1,2.7,3,398816.8886728892,42.1811,-111.8132,14715.0
16043.0,ID,Fremont County,11.2,2.6,8,410419.36257410387,44.2288,-111.4819,13701.0
16045.0,ID,Gem County,10.9,3.8,2,429699.0810025012,44.0615,-116.3975,19854.0
16047.0,ID,Gooding County,12.8,3.0,8,309607.0711118722,42.971,-114.8115,15740.0
16049.0,ID,Idaho County,13.7,4.0,8,313531.0748446708,45.8441,-115.4675,17120.0
16051.0,ID,Jefferson County,7.8,2.6,3,433171.00183289195,43.8201,-112.3113,32234.0
16053.0,ID,Jerome County,12.3,3.1,3,348076.8684593064,42.6899,-114.2639,24788.0
16055.0,ID,Kootenai County,9.3,3.6,3,546881.1565072379,47.6744,-116.7018,177736.0
16057.0,ID,Latah County,14.3,2.7,4,427259.16122765385,46.8162,-116.7117,40315.0
16059.0,ID,Lemhi County,13.0,3.8,9,358177.3431388196,44.9433,-113.9333,8166.0
16061.0,ID,Lewis County,13.5,3.4,8,247094.9258430358,46.237,-116.4263,3649.0
16063.0,ID,Lincoln County,12.1,3.9,8,282316.55106061266,43.0024,-114.1383,5276.0
16065.0,ID,Madison County,20.6,2.2,4,393371.4436472928,43.7841,-111.6592,53578.0
16067.0,ID,Minidoka County,11.2,2.7,7,286785.39323203015,42.8543,-113.6375,21922.0
16069.0,ID,Nez Perce County,11.0,2.8,3,352244.7141466104,46.3268,-116.7502,42477.0
16071.0,ID,Oneida County,10.0,3.0,8,298648.19507721293,42.195,-112.5394,4681.0
16073.0,ID,Owyhee County,11.8,3.9,2,386134.6774646346,42.5814,-116.1699,12284.0
16075.0,ID,Payette County,11.2,3.8,6,414037.29078111413,44.0068,-116.7608,26190.0
16077.0,ID,Power County,12.4,3.8,8,272417.6691022027,42.6937,-112.8407,8018.0
16079.0,ID,Shoshone County,15.7,5.2,8,264545.79271117604,47.3529,-115.8924,13580.0
16081.0,ID,Teton County,6.6,2.3,9,783275.3948949517,43.7594,-111.2076,12101.0
16083.0,ID,Twin Falls County,10.5,3.2,3,342071.49032668094,42.356,-114.6672,92121.0
16085.0,ID,Valley County,7.8,3.7,9,645373.9048520571,44.7666,-115.5663,12136.0
16087.0,ID,Washington County,13.5,4.0,6,318896.0201858745,44.4524,-116.7847,10866.0
17001.0,IL,Adams County,12.2,3.6,5,171750.84872337876,39.9879,-91.1885,65166.0
17003.0,IL,Alexander County,25.8,6.3,3,48922.38123532028,37.1915,-89.3375,5042.0
17005.0,IL,Bond County,13.6,4.2,1,142513.2694099012,38.8868,-89.4355,16627.0
17007.0,IL,Boone County,10.8,7.0,2,227704.05008787845,42.3231,-88.8234,53316.0
17009.0,IL,Brown County,13.7,2.4,9,127503.89449784628,39.9618,-90.7504,6320.0
17011.0,IL,Bureau County,11.4,5.7,7,120567.88612927553,41.4041,-89.5287,33027.0
17013.0,IL,Calhoun County,9.9,4.2,1,156617.35694682173,39.1693,-90.6676,4406.0
17015.0,IL,Carroll County,12.9,4.4,9,123196.35363756755,42.0687,-89.9343,15621.0
17017.0,IL,Cass County,11.6,4.4,6,82104.44713706594,39.9735,-90.2474,12826.0
17019.0,IL,Champaign County,16.2,4.1,3,191437.33681149373,40.1401,-88.1992,206098.0
17021.0,IL,Christian County,12.1,5.1,6,99116.60282262355,39.5458,-89.2773,33684.0
17023.0,IL,Clark County,12.0,4.6,8,127316.22166474888,39.3336,-87.7877,15328.0
17025.0,IL,Clay County,14.9,5.3,9,96273.15859221929,38.7542,-88.4902,13173.0
17027.0,IL,Clinton County,7.5,3.3,1,185583.91740216484,38.6065,-89.4225,36899.0
17029.0,IL,Coles County,17.3,4.4,5,114482.68822525241,39.5203,-88.2218,46689.0
17031.0,IL,Cook County,13.2,4.4,1,285912.5610423559,41.8401,-87.8168,5185812.0
17033.0,IL,Crawford County,14.2,4.0,6,110904.91974134209,39.0027,-87.7596,18588.0
17035.0,IL,Cumberland County,11.2,3.5,9,139662.1444468628,39.2733,-88.2402,10378.0
17037.0,IL,DeKalb County,12.5,4.7,1,239874.48826370854,41.8935,-88.7703,100512.0
17039.0,IL,De Witt County,10.8,4.4,6,119894.35868074559,40.1746,-88.9041,15461.0
17041.0,IL,Douglas County,9.0,3.6,8,122541.57677293834,39.7694,-88.2173,19686.0
17043.0,IL,DuPage County,6.6,3.4,1,366835.4999990771,41.852,-88.0856,927263.0
17045.0,IL,Edgar County,13.6,3.7,6,87661.95661695549,39.6786,-87.7456,16637.0
17047.0,IL,Edwards County,13.9,4.7,9,91315.11037680761,38.4165,-88.0533,6118.0
17049.0,IL,Effingham County,9.8,3.2,7,202437.397004103,39.0598,-88.5899,34505.0
17051.0,IL,Fayette County,17.0,4.9,6,133010.2224396653,39.0002,-89.0241,21380.0
17053.0,IL,Ford County,11.0,4.4,3,123883.30401048358,40.5972,-88.2233,13396.0
17055.0,IL,Franklin County,17.9,5.5,7,95423.47714787173,37.9923,-88.9242,37541.0
17057.0,IL,Fulton County,11.8,5.3,6,97325.04144966972,40.4728,-90.2075,33259.0
17059.0,IL,Gallatin County,17.5,5.4,8,72943.13346173412,37.7628,-88.2305,4857.0
17061.0,IL,Greene County,13.8,4.4,8,90477.80721008928,39.3562,-90.3905,11837.0
17063.0,IL,Grundy County,6.8,4.6,1,270452.86301337986,41.2851,-88.4185,52920.0
17065.0,IL,Hamilton County,11.3,3.8,9,109182.16045067793,38.0816,-88.5391,7972.0
17067.0,IL,Hancock County,13.0,4.1,9,96068.20414457092,40.4037,-91.1647,17434.0
17069.0,IL,Hardin County,19.2,5.5,9,97546.63544480193,37.5182,-88.2668,3623.0
17071.0,IL,Henderson County,13.2,4.2,9,101806.52420121894,40.818,-90.9251,6284.0
17073.0,IL,Henry County,9.6,4.9,2,142287.21377233427,41.3531,-90.1314,48948.0
17075.0,IL,Iroquois County,12.3,4.6,8,126075.87447826524,40.7473,-87.8243,26746.0
17077.0,IL,Jackson County,20.7,4.4,5,104575.55997934798,37.7851,-89.3821,52706.0
17079.0,IL,Jasper County,9.4,4.0,9,147630.14947196952,39.0101,-88.1538,9233.0
17081.0,IL,Jefferson County,15.4,4.7,7,112534.6207053221,38.3005,-88.924,36808.0
17083.0,IL,Jersey County,10.8,3.9,1,173720.4785068462,39.0855,-90.3565,21336.0
17085.0,IL,Jo Daviess County,8.6,4.1,8,206428.24863061614,42.3658,-90.2126,21918.0
17087.0,IL,Johnson County,15.2,5.8,8,158812.31577967017,37.4597,-88.8809,13350.0
17089.0,IL,Kane County,8.4,5.1,1,311385.20559806656,41.9388,-88.4286,516097.0
17091.0,IL,Kankakee County,11.5,5.8,3,187262.16676606738,41.1377,-87.8618,106833.0
17093.0,IL,Kendall County,5.1,3.8,1,325440.7126882007,41.5906,-88.4288,135053.0
17095.0,IL,Knox County,16.3,5.5,4,93712.13496050595,40.9318,-90.2132,49294.0
17097.0,IL,Lake County,8.2,5.0,1,323978.6458186078,42.3233,-88.0037,711885.0
17099.0,IL,La Salle County,11.6,5.8,4,153405.90013657438,41.344,-88.8859,109049.0
17101.0,IL,Lawrence County,18.3,5.3,9,78948.54719235425,38.72,-87.7268,15137.0
17103.0,IL,Lee County,10.1,4.4,6,147333.75734244182,41.7461,-89.3003,34058.0
17105.0,IL,Livingston County,11.1,4.1,6,130492.34747343467,40.8916,-88.5577,35659.0
17107.0,IL,Logan County,14.4,4.7,6,116161.1189629305,40.1245,-89.3675,27870.0
17109.0,IL,McDonough County,19.9,4.6,7,89628.7715353927,40.4562,-90.6779,27102.0
17111.0,IL,McHenry County,6.3,3.7,1,301622.4592827242,42.3244,-88.4523,311366.0
17113.0,IL,McLean County,11.0,3.9,3,213866.83642215142,40.4909,-88.8473,170882.0
17115.0,IL,Macon County,15.7,6.0,3,100914.34003668382,39.86,-88.9616,102591.0
17117.0,IL,Macoupin County,13.0,4.1,1,119918.04027850575,39.261,-89.9245,44566.0
17119.0,IL,Madison County,11.1,4.1,1,164356.90072036383,38.8297,-89.9049,264631.0
17121.0,IL,Marion County,16.0,4.9,7,99241.86739100088,38.6496,-88.919,37294.0
17123.0,IL,Marshall County,10.2,5.2,2,110530.88811830904,41.0332,-89.3448,11715.0
17125.0,IL,Mason County,14.9,5.2,8,84383.44441564848,40.2396,-89.9168,12878.0
17127.0,IL,Massac County,17.7,5.0,3,102075.28555189384,37.2189,-88.7076,13958.0
17129.0,IL,Menard County,10.3,3.9,3,174629.02295047118,40.0274,-89.8022,12169.0
17131.0,IL,Mercer County,9.8,4.7,2,143537.46342128326,41.2053,-90.7414,15619.0
17133.0,IL,Monroe County,4.9,3.1,1,272142.37322109484,38.2785,-90.1773,34969.0
17135.0,IL,Montgomery County,14.7,5.1,6,106950.78983188827,39.231,-89.4789,28078.0
17137.0,IL,Morgan County,13.9,4.2,4,112491.95090047843,39.7156,-90.2015,32621.0
17139.0,IL,Moultrie County,11.0,3.6,8,135237.097446235,39.6415,-88.6193,14469.0
17141.0,IL,Ogle County,9.2,5.4,6,193760.27696722452,42.0426,-89.3207,51536.0
17143.0,IL,Peoria County,16.8,5.5,2,125501.41941355259,40.788,-89.7601,179831.0
17145.0,IL,Perry County,17.0,5.3,7,95389.30203964272,38.0837,-89.367,20810.0
17147.0,IL,Piatt County,6.8,3.8,3,182331.3120124762,40.0103,-88.5911,16702.0
17149.0,IL,Pike County,15.0,4.5,9,88122.1690654938,39.6225,-90.8863,14625.0
17151.0,IL,Pope County,16.1,3.9,8,151515.4943232434,37.4127,-88.5615,3757.0
17153.0,IL,Pulaski County,22.4,7.7,8,77773.93373631498,37.2232,-89.1266,5074.0
17155.0,IL,Putnam County,8.8,5.6,8,161265.6206291936,41.2045,-89.2858,5600.0
17157.0,IL,Randolph County,11.8,4.0,6,123061.78137369927,38.0521,-89.8252,30142.0
17159.0,IL,Richland County,13.1,4.2,7,118992.95676536084,38.7124,-88.0851,15675.0
17161.0,IL,Rock Island County,14.8,5.1,2,140394.64946924185,41.4673,-90.5674,142995.0
17163.0,IL,St. Clair County,13.4,4.6,1,158601.42441816954,38.4703,-89.9284,254777.0
17165.0,IL,Saline County,18.5,5.0,7,82483.91101688861,37.7531,-88.5407,23387.0
17167.0,IL,Sangamon County,11.9,4.3,3,163536.50614989203,39.7582,-89.6589,195217.0
17169.0,IL,Schuyler County,13.7,4.3,9,142633.09392760624,40.158,-90.6151,6826.0
17171.0,IL,Scott County,11.4,5.1,9,82037.47702922043,39.6441,-90.4747,4847.0
17173.0,IL,Shelby County,10.6,4.4,8,137698.22378911937,39.3911,-88.8055,20867.0
17175.0,IL,Stark County,11.3,5.6,2,120865.61598855829,41.0934,-89.7975,5324.0
17177.0,IL,Stephenson County,12.7,5.0,4,128061.20989660219,42.3518,-89.6623,44042.0
17179.0,IL,Tazewell County,8.9,4.5,2,147070.07566323908,40.5075,-89.5135,130555.0
17181.0,IL,Union County,15.9,5.4,6,127082.23831158006,37.4713,-89.2551,16972.0
17183.0,IL,Vermilion County,19.5,5.8,4,82520.84585027219,40.1834,-87.7328,73179.0
17185.0,IL,Wabash County,14.4,3.4,7,112220.01630580582,38.4461,-87.8443,11199.0
17187.0,IL,Warren County,12.1,4.2,6,96086.60008022413,40.8488,-90.615,16576.0
17189.0,IL,Washington County,8.7,2.8,8,138168.0534844253,38.3522,-89.4105,13682.0
17191.0,IL,Wayne County,12.7,4.6,9,114013.79196604401,38.4296,-88.4256,15994.0
17193.0,IL,White County,14.9,4.1,6,90863.57336319346,38.0875,-88.1796,13708.0
17195.0,IL,Whiteside County,11.4,4.7,4,118724.4779615069,41.7562,-89.9141,55192.0
17197.0,IL,Will County,7.2,4.2,1,313366.57196991437,41.445,-87.9786,698450.0
17199.0,IL,Williamson County,16.8,4.4,5,135671.27618491187,37.7303,-88.9299,66902.0
17201.0,IL,Winnebago County,14.7,6.2,2,156914.19580693461,42.3363,-89.1609,283289.0
17203.0,IL,Woodford County,6.9,4.0,2,194422.02069669138,40.7883,-89.2113,38348.0
18001.0,IN,Adams County,11.4,2.7,6,200507.58576804446,40.7457,-84.9367,35995.0
18003.0,IN,Allen County,13.0,3.1,2,216810.65715781695,41.0909,-85.0665,388791.0
18005.0,IN,Bartholomew County,10.0,2.8,3,240313.2957874996,39.206,-85.8976,82881.0
18007.0,IN,Benton County,9.9,2.6,3,157168.54511453162,40.6063,-87.3109,8708.0
18009.0,IN,Blackford County,15.7,4.0,6,109746.4709977424,40.4736,-85.3249,12007.0
18011.0,IN,Boone County,4.7,2.5,1,375730.9594832606,40.0508,-86.4687,72827.0
18013.0,IN,Brown County,9.9,3.3,1,323857.53331913345,39.1962,-86.2274,15543.0
18015.0,IN,Carroll County,9.2,2.9,3,195477.5230431492,40.5828,-86.5635,20443.0
18017.0,IN,Cass County,13.1,3.7,4,139512.20449135083,40.7615,-86.346,37703.0
18019.0,IN,Clark County,9.4,3.1,1,234265.5083381234,38.4772,-85.7073,122800.0
18021.0,IN,Clay County,12.6,3.4,3,154143.40055582352,39.3928,-87.1158,26431.0
18023.0,IN,Clinton County,11.4,2.6,6,181624.8561721573,40.3017,-86.4751,32967.0
18025.0,IN,Crawford County,17.7,3.6,8,144339.49982406947,38.2924,-86.4517,10494.0
18027.0,IN,Daviess County,10.6,2.4,7,201094.8094940133,38.7024,-87.072,33442.0
18029.0,IN,Dearborn County,7.9,3.3,1,282367.0014283034,39.1452,-84.9732,50828.0
18031.0,IN,Decatur County,10.6,2.7,6,213079.95928526513,39.307,-85.5011,26411.0
18033.0,IN,De Kalb County,11.3,3.0,4,208493.03520699713,41.3976,-84.9991,43584.0
18035.0,IN,Delaware County,19.4,3.8,3,138089.0783342663,40.2275,-85.3969,112109.0
18037.0,IN,Dubois County,7.7,2.5,5,222223.82427449618,38.3643,-86.8798,43563.0
18039.0,IN,Elkhart County,11.7,4.0,3,227020.10608982792,41.5974,-85.8587,206868.0
18041.0,IN,Fayette County,16.1,4.4,6,135299.69120929812,39.64,-85.1788,23390.0
18043.0,IN,Floyd County,10.2,2.8,1,249595.77394132724,38.3187,-85.907,80512.0
18045.0,IN,Fountain County,10.6,3.1,8,160820.42084476605,40.1209,-87.242,16546.0
18047.0,IN,Franklin County,8.8,3.1,1,260621.9678407578,39.4149,-85.0602,22929.0
18049.0,IN,Fulton County,11.0,3.5,7,174808.3118281757,41.047,-86.2635,20411.0
18051.0,IN,Gibson County,11.0,2.4,6,176915.39223250048,38.3119,-87.5846,32986.0
18053.0,IN,Grant County,20.0,3.5,4,123958.52711798536,40.5158,-85.6547,66377.0
18055.0,IN,Greene County,11.9,3.9,6,171606.74070794272,39.0364,-86.9621,30954.0
18057.0,IN,Hamilton County,4.8,2.5,1,417053.6446469337,40.0725,-86.052,357176.0
18059.0,IN,Hancock County,5.7,2.8,1,293722.9688382755,39.8236,-85.7732,82013.0
18061.0,IN,Harrison County,8.6,2.8,1,229820.59700706447,38.1951,-86.1115,39785.0
18063.0,IN,Hendricks County,5.6,2.7,1,314178.1337702381,39.7695,-86.51,179379.0
18065.0,IN,Henry County,12.7,3.4,6,155091.35501825807,39.9311,-85.3964,48896.0
18067.0,IN,Howard County,12.7,5.0,3,155236.41784558166,40.4836,-86.1169,83610.0
18069.0,IN,Huntington County,8.9,3.0,6,174553.26836481845,40.8292,-85.4881,36757.0
18071.0,IN,Jackson County,10.1,2.8,4,201086.6779400863,38.9064,-86.0375,46319.0
18073.0,IN,Jasper County,8.7,3.6,1,245536.1938944398,41.023,-87.1161,33198.0
18075.0,IN,Jay County,13.4,3.1,6,132466.1090358596,40.4379,-85.0056,20281.0
18077.0,IN,Jefferson County,12.1,3.1,6,198281.28253667246,38.7858,-85.4386,33074.0
18079.0,IN,Jennings County,13.4,3.4,6,188466.07318717727,38.9969,-85.6281,27584.0
18081.0,IN,Johnson County,7.2,2.7,1,283460.25043788267,39.49,-86.1016,163983.0
18083.0,IN,Knox County,15.7,3.0,7,130829.32875534004,38.6891,-87.418,36108.0
18085.0,IN,Kosciusko County,9.4,3.4,4,251282.02272826113,41.2441,-85.8607,80357.0
18087.0,IN,Lagrange County,8.4,3.1,8,303363.15543758206,41.6426,-85.4265,40596.0
18089.0,IN,Lake County,14.3,5.0,1,220257.98445556717,41.4167,-87.3821,498990.0
18091.0,IN,La Porte County,14.3,4.0,3,217873.06789502272,41.546,-86.74,112141.0
18093.0,IN,Lawrence County,12.1,3.8,6,181583.06732613215,38.8412,-86.4835,45077.0
18095.0,IN,Madison County,13.0,3.6,1,159231.4513427929,40.1616,-85.7194,130949.0
18097.0,IN,Marion County,15.6,3.3,1,215303.85621055568,39.7817,-86.1385,971822.0
18099.0,IN,Marshall County,10.6,3.4,6,220970.95759187036,41.3248,-86.2618,46225.0
18101.0,IN,Martin County,13.2,2.8,9,171500.05555441385,38.708,-86.8031,9854.0
18103.0,IN,Miami County,15.2,3.9,6,133063.68421119076,40.7695,-86.045,35772.0
18105.0,IN,Monroe County,17.7,3.3,3,286149.90219526796,39.1609,-86.5231,139822.0
18107.0,IN,Montgomery County,10.9,2.8,6,190200.50159446683,40.0404,-86.8933,38155.0
18109.0,IN,Morgan County,9.8,3.0,1,265859.6730664083,39.4816,-86.4462,72202.0
18111.0,IN,Newton County,10.2,3.9,1,190616.67835342686,40.9558,-87.3976,13859.0
18113.0,IN,Noble County,10.6,3.7,6,211800.54611050055,41.3986,-85.4175,47417.0
18115.0,IN,Ohio County,9.2,3.0,1,246035.71205086628,38.9501,-84.9651,5993.0
18117.0,IN,Orange County,13.7,3.4,8,162483.07331693004,38.5418,-86.4951,19746.0
18119.0,IN,Owen County,12.5,3.7,3,204190.79507248534,39.3128,-86.8377,21434.0
18121.0,IN,Parke County,15.2,3.3,8,174864.60165069683,39.7736,-87.2064,16346.0
18123.0,IN,Perry County,14.3,3.0,7,161096.77662543763,38.0796,-86.638,19218.0
18125.0,IN,Pike County,10.8,3.3,8,154024.25787022273,38.3988,-87.2322,12187.0
18127.0,IN,Porter County,9.3,3.7,1,294289.5208507523,41.4603,-87.0672,174150.0
18129.0,IN,Posey County,9.3,2.7,2,205566.88982943352,38.0218,-87.8685,25163.0
18131.0,IN,Pulaski County,11.3,2.9,8,159528.55075573447,41.0419,-86.6988,12441.0
18133.0,IN,Putnam County,10.8,3.2,6,230933.5995459915,39.6663,-86.845,37091.0
18135.0,IN,Randolph County,14.6,3.2,6,129238.61338400739,40.1576,-85.0113,24425.0
18137.0,IN,Ripley County,10.3,3.5,6,243877.6456987097,39.1035,-85.2624,29039.0
18139.0,IN,Rush County,10.8,2.7,6,174150.0076207725,39.62,-85.4658,16734.0
18141.0,IN,St. Joseph County,14.2,3.9,2,190708.94621060876,41.6166,-86.2899,272574.0
18143.0,IN,Scott County,14.5,3.5,6,175935.57830944963,38.6851,-85.7475,24468.0
18145.0,IN,Shelby County,11.2,2.8,1,213617.9152404595,39.5237,-85.7917,45104.0
18147.0,IN,Spencer County,8.7,2.9,8,204918.80271466047,38.0141,-87.0077,19871.0
18149.0,IN,Starke County,13.1,4.1,8,183699.594496209,41.2809,-86.6476,23300.0
18151.0,IN,Steuben County,10.2,2.7,7,277890.1223689681,41.6439,-85.0008,34648.0
18153.0,IN,Sullivan County,15.6,3.8,3,139204.79533518618,39.0889,-87.4147,20766.0
18155.0,IN,Switzerland County,12.8,3.2,8,206134.95858789806,38.8262,-85.037,9914.0
18157.0,IN,Tippecanoe County,17.1,2.9,3,251664.54539663304,40.3886,-86.8941,187399.0
18159.0,IN,Tipton County,9.0,3.0,1,201678.72767778762,40.3113,-86.0519,15329.0
18161.0,IN,Union County,11.2,2.9,8,187310.23860984432,39.6256,-84.9252,7028.0
18163.0,IN,Vanderburgh County,13.8,3.2,2,170917.72140131038,38.0249,-87.5859,179908.0
18165.0,IN,Vermillion County,12.5,4.1,3,118079.57887994862,39.8538,-87.464,15452.0
18167.0,IN,Vigo County,20.2,3.8,3,136911.96747767163,39.4306,-87.39,106201.0
18169.0,IN,Wabash County,11.8,3.1,6,159786.2124065703,40.8457,-85.794,30901.0
18171.0,IN,Warren County,9.6,2.9,3,201432.31889679783,40.3469,-87.3533,8469.0
18173.0,IN,Warrick County,8.3,2.9,2,250677.36296921436,38.0922,-87.2721,64650.0
18175.0,IN,Washington County,13.0,3.1,1,192946.46541731118,38.6,-86.1053,28167.0
18177.0,IN,Wayne County,17.3,3.4,5,140860.69884125024,39.8644,-85.0099,66377.0
18179.0,IN,Wells County,8.6,2.7,2,206254.53992838733,40.7293,-85.2212,28261.0
18181.0,IN,White County,10.8,2.7,6,189742.95974914904,40.7498,-86.8655,24709.0
18183.0,IN,Whitley County,8.5,2.7,2,241745.7477043945,41.1394,-85.5051,34388.0
19001.0,IA,Adair County,9.8,2.4,8,161451.74220885662,41.3307,-94.471,7471.0
19003.0,IA,Adams County,11.6,2.2,9,143569.58026290184,41.029,-94.6992,3641.0
19005.0,IA,Allamakee County,11.1,3.8,8,203313.13467426892,43.2843,-91.3781,14038.0
19007.0,IA,Appanoose County,16.1,3.3,7,105310.96739829466,40.7432,-92.8686,12242.0
19009.0,IA,Audubon County,10.2,2.2,9,131247.69687713942,41.6846,-94.9058,5622.0
19011.0,IA,Benton County,8.0,3.3,2,205808.54513734582,42.0802,-92.0657,25698.0
19013.0,IA,Black Hawk County,14.2,3.2,3,164712.88421800412,42.4701,-92.3088,130693.0
19015.0,IA,Boone County,8.2,2.5,3,200777.02894213906,42.0365,-93.9316,26669.0
19017.0,IA,Bremer County,7.8,2.5,3,224940.4170346644,42.7746,-92.3181,25118.0
19019.0,IA,Buchanan County,8.8,2.9,6,189429.95222411308,42.4708,-91.8379,20645.0
19021.0,IA,Buena Vista County,12.2,2.4,7,169937.67164163484,42.7355,-95.1511,20684.0
19023.0,IA,Butler County,7.9,3.1,8,174161.12102360214,42.7316,-92.7902,14301.0
19025.0,IA,Calhoun County,11.6,2.7,9,129103.48235790043,42.3852,-94.6404,9858.0
19027.0,IA,Carroll County,9.3,2.4,7,182704.42949282273,42.0362,-94.8605,20677.0
19029.0,IA,Cass County,14.8,2.7,6,132802.71805814642,41.3315,-94.9278,13115.0
19031.0,IA,Cedar County,7.9,3.0,8,216617.09750068607,41.7723,-91.1324,18427.0
19033.0,IA,Cerro Gordo County,10.7,3.1,5,177586.0161904775,43.0816,-93.2608,42785.0
19035.0,IA,Cherokee County,9.9,2.5,9,145102.57870945425,42.7356,-95.6238,11587.0
19037.0,IA,Chickasaw County,8.8,2.5,8,184334.0991107059,43.0601,-92.3177,11868.0
19039.0,IA,Clarke County,10.5,2.9,6,167102.89373904266,41.029,-93.7852,9690.0
19041.0,IA,Clay County,10.5,2.9,7,174395.16426983906,43.0826,-95.1509,16446.0
19043.0,IA,Clayton County,10.5,4.0,8,174695.1127455433,42.8447,-91.3414,17069.0
19045.0,IA,Clinton County,13.3,3.7,4,159160.65465251898,41.898,-90.532,46383.0
19047.0,IA,Crawford County,11.2,4.8,7,144278.29090953592,42.0372,-95.382,16289.0
19049.0,IA,Dallas County,6.0,2.2,2,335541.34190097015,41.6849,-94.0398,104136.0
19051.0,IA,Davis County,11.6,2.4,9,200611.5740319624,40.7477,-92.4097,9127.0
19053.0,IA,Decatur County,18.3,2.4,9,134580.83615989878,40.7377,-93.7863,7669.0
19055.0,IA,Delaware County,8.7,2.6,8,214399.61372305214,42.4712,-91.3673,17549.0
19057.0,IA,Des Moines County,14.3,4.2,5,130975.58420201424,40.9232,-91.1815,38597.0
19059.0,IA,Dickinson County,7.9,2.9,7,352597.44719805487,43.378,-95.1508,17844.0
19061.0,IA,Dubuque County,9.6,2.9,3,235704.74881429804,42.4688,-90.8825,98948.0
19063.0,IA,Emmet County,9.8,3.1,7,116183.65128206532,43.3781,-94.6785,9316.0
19065.0,IA,Fayette County,13.9,3.2,6,136508.94539739375,42.8626,-91.8444,19393.0
19067.0,IA,Floyd County,11.5,3.4,7,140881.4472572692,43.0599,-92.789,15502.0
19069.0,IA,Franklin County,11.3,2.8,9,139428.35974423107,42.7325,-93.2625,9977.0
19071.0,IA,Fremont County,9.8,2.3,8,151648.57158339152,40.7456,-95.6047,6570.0
19073.0,IA,Greene County,10.7,2.2,8,133422.3342637182,42.0363,-94.3968,8722.0
19075.0,IA,Grundy County,6.7,2.8,3,186927.33858264252,42.4019,-92.7914,12352.0
19077.0,IA,Guthrie County,9.9,3.0,2,228284.13488629772,41.6837,-94.5011,10646.0
19079.0,IA,Hamilton County,8.5,2.7,6,142702.79646573676,42.3838,-93.7068,14893.0
19081.0,IA,Hancock County,9.9,2.8,9,165495.57075353834,43.0819,-93.7343,10718.0
19083.0,IA,Hardin County,10.4,3.1,6,128641.68362430054,42.3839,-93.2404,16729.0
19085.0,IA,Harrison County,9.8,2.7,2,196179.1642953373,41.6829,-95.8168,14645.0
19087.0,IA,Henry County,12.7,3.3,6,163900.3586470278,40.988,-91.5445,20228.0
19089.0,IA,Howard County,9.9,3.2,8,165734.47499037225,43.3568,-92.3172,9459.0
19091.0,IA,Humboldt County,9.6,2.7,7,147977.94757855323,42.7765,-94.2072,9573.0
19093.0,IA,Ida County,9.4,2.1,8,134641.99836703984,42.3869,-95.5135,6944.0
19095.0,IA,Iowa County,7.6,2.8,8,201123.0940129664,41.6863,-92.0655,16547.0
19097.0,IA,Jackson County,9.3,3.5,6,200928.54444410297,42.1717,-90.5743,19429.0
19099.0,IA,Jasper County,9.6,3.0,2,192672.11333488993,41.686,-93.0538,37864.0
19101.0,IA,Jefferson County,14.1,2.7,7,162076.0685231228,41.0318,-91.9489,15676.0
19103.0,IA,Johnson County,15.5,2.4,3,276645.62636070966,41.6715,-91.5881,154881.0
19105.0,IA,Jones County,10.3,3.5,2,201517.60998930663,42.1212,-91.1315,20799.0
19107.0,IA,Keokuk County,11.1,3.3,8,130122.88137287319,41.3365,-92.1786,9964.0
19109.0,IA,Kossuth County,10.2,2.5,7,146754.5242029636,43.2041,-94.2067,14610.0
19111.0,IA,Lee County,14.4,4.1,7,109866.35511091081,40.642,-91.4793,33175.0
19113.0,IA,Linn County,9.9,3.5,2,205098.4529292124,42.079,-91.599,229463.0
19115.0,IA,Louisa County,9.8,3.2,8,149779.82346544092,41.2185,-91.2596,10710.0
19117.0,IA,Lucas County,13.7,2.4,8,163452.8167001068,41.0294,-93.3277,8685.0
19119.0,IA,Lyon County,7.8,2.0,8,206078.32715842425,43.3805,-96.2102,12087.0
19121.0,IA,Madison County,7.0,3.5,2,292862.0930207313,41.3307,-94.0156,16760.0
19123.0,IA,Mahaska County,11.7,2.6,7,165222.55776531,41.3352,-92.6409,22045.0
19125.0,IA,Marion County,8.0,2.2,6,231516.4888706968,41.3344,-93.0994,33551.0
19127.0,IA,Marshall County,12.0,6.3,4,148731.02599091813,42.0358,-92.9988,39971.0
19129.0,IA,Mills County,8.5,2.7,2,257079.14749892594,41.0334,-95.6213,14563.0
19131.0,IA,Mitchell County,9.2,2.3,9,180881.39571299608,43.3564,-92.789,10548.0
19133.0,IA,Monona County,12.6,2.8,8,136694.99598272998,42.0516,-95.9599,8619.0
19135.0,IA,Monroe County,10.2,2.8,9,152493.25357257907,41.0298,-92.869,7546.0
19137.0,IA,Montgomery County,13.0,2.6,6,119303.50131036658,41.0301,-95.1564,10254.0
19139.0,IA,Muscatine County,11.7,3.2,4,176604.48484532058,41.4839,-91.1127,42735.0
19141.0,IA,O'Brien County,9.1,2.4,7,151288.64518108882,43.0838,-95.6249,14103.0
19143.0,IA,Osceola County,10.5,1.9,9,141115.91166564944,43.3786,-95.6237,6114.0
19145.0,IA,Page County,13.8,2.6,6,129233.41836143659,40.7391,-95.1502,15168.0
19147.0,IA,Palo Alto County,10.7,2.5,9,140298.87269985653,43.0821,-94.6781,8902.0
19149.0,IA,Plymouth County,8.7,2.1,6,243407.94470043975,42.7378,-96.2141,25699.0
19151.0,IA,Pocahontas County,11.1,2.3,9,101007.32700625318,42.7342,-94.6787,7040.0
19153.0,IA,Polk County,11.5,2.9,2,253365.19778566327,41.6854,-93.5734,497441.0
19155.0,IA,Pottawattamie County,11.6,2.9,2,200263.1917178806,41.3366,-95.5423,93407.0
19157.0,IA,Poweshiek County,10.3,2.9,6,196769.54796307647,41.6864,-92.5315,18582.0
19159.0,IA,Ringgold County,14.1,2.2,9,155957.37889191264,40.7352,-94.244,4664.0
19161.0,IA,Sac County,10.0,2.4,9,142823.28983483842,42.3862,-95.1054,9759.0
19163.0,IA,Scott County,11.0,3.5,2,206331.02105787254,41.6371,-90.6232,174302.0
19165.0,IA,Shelby County,8.8,2.4,8,178196.1279796859,41.6851,-95.3102,11757.0
19167.0,IA,Sioux County,6.9,1.9,6,260846.18601809224,43.0826,-96.1779,35984.0
19169.0,IA,Story County,14.9,2.1,3,246895.13015297198,42.0362,-93.465,98592.0
19171.0,IA,Tama County,12.3,3.9,6,151648.3954389293,42.0798,-92.5326,16982.0
19173.0,IA,Taylor County,13.0,2.2,9,119049.52068938092,40.7374,-94.6964,5901.0
19175.0,IA,Union County,13.7,3.0,6,132497.96255902536,41.0277,-94.2424,12038.0
19177.0,IA,Van Buren County,14.8,3.1,9,134535.838235653,40.7532,-91.95,7236.0
19179.0,IA,Wapello County,13.8,3.5,5,112230.33640196118,41.0306,-92.4095,35265.0
19181.0,IA,Warren County,5.8,2.6,2,289883.34159706533,41.3343,-93.5615,53484.0
19183.0,IA,Washington County,9.5,2.6,3,198528.58803063206,41.3356,-91.7179,22539.0
19185.0,IA,Wayne County,14.7,2.9,9,122652.9001730662,40.7395,-93.3274,6518.0
19187.0,IA,Webster County,14.0,3.1,5,128393.86755541908,42.4279,-94.1818,36848.0
19189.0,IA,Winnebago County,11.4,3.8,9,137454.04007972655,43.3776,-93.7342,10648.0
19191.0,IA,Winneshiek County,7.9,3.2,7,268590.0491344411,43.2907,-91.8437,19972.0
19193.0,IA,Woodbury County,12.9,2.9,3,177407.48384351467,42.3897,-96.0448,105760.0
19195.0,IA,Worth County,9.2,3.0,9,161190.37924196754,43.3774,-93.2608,7380.0
19197.0,IA,Wright County,11.0,2.6,9,120006.87474446443,42.7331,-93.7352,12817.0
20001.0,KS,Allen County,16.0,2.8,7,90043.94157436078,37.8857,-95.3014,12491.0
20003.0,KS,Anderson County,11.6,2.1,8,155955.85516242142,38.2142,-95.2933,7819.0
20005.0,KS,Atchison County,13.6,3.4,6,146641.2403323996,39.5318,-95.3135,16211.0
20007.0,KS,Barber County,11.7,2.4,9,65273.32472405977,37.2289,-98.6848,4153.0
20009.0,KS,Barton County,15.0,2.7,7,97176.31542435256,38.479,-98.7565,25275.0
20011.0,KS,Bourbon County,15.4,3.4,6,109275.34684174816,37.8552,-94.8493,14384.0
20013.0,KS,Brown County,12.2,2.8,8,119136.47115345829,39.8265,-95.5642,9415.0
20015.0,KS,Butler County,9.2,2.7,2,221720.9374319313,37.7812,-96.839,67916.0
20017.0,KS,Chase County,11.4,2.3,8,137321.17999884495,38.302,-96.594,2579.0
20019.0,KS,Chautauqua County,14.7,2.8,9,72020.73341912053,37.15,-96.2454,3370.0
20021.0,KS,Cherokee County,15.2,2.7,3,101597.4543262359,37.1693,-94.8463,19236.0
20023.0,KS,Cheyenne County,12.2,2.5,9,124336.55407597736,39.7859,-101.7319,2628.0
20025.0,KS,Clark County,12.2,2.0,9,78673.88829328389,37.2355,-99.8203,1987.0
20027.0,KS,Clay County,11.0,2.5,8,130307.9909389518,39.3497,-97.1652,8071.0
20029.0,KS,Cloud County,12.1,2.8,7,92768.19463656632,39.4803,-97.6493,8973.0
20031.0,KS,Coffey County,9.8,3.3,8,160395.19697210297,38.2369,-95.7341,8304.0
20033.0,KS,Comanche County,12.1,2.6,9,74232.51779099504,37.1913,-99.2718,1685.0
20035.0,KS,Cowley County,15.2,3.0,4,104293.1818991057,37.2377,-96.8375,34487.0
20037.0,KS,Crawford County,17.3,2.8,4,112948.32955166778,37.5073,-94.8518,38963.0
20039.0,KS,Decatur County,13.9,2.9,9,85120.65769624192,39.7847,-100.4599,2746.0
20041.0,KS,Dickinson County,10.5,2.8,6,144870.20152685943,38.8665,-97.1527,18423.0
20043.0,KS,Doniphan County,12.3,2.5,3,129645.64404919812,39.7881,-95.1468,7492.0
20045.0,KS,Douglas County,13.3,2.6,3,289061.22530481854,38.8847,-95.2926,119547.0
20047.0,KS,Edwards County,12.0,2.3,9,74885.14304214953,37.8876,-99.3122,2817.0
20049.0,KS,Elk County,17.1,2.5,8,68232.82691866191,37.4537,-96.2441,2464.0
20051.0,KS,Ellis County,15.6,1.9,5,210771.05750869584,38.9147,-99.3173,28870.0
20053.0,KS,Ellsworth County,12.3,2.4,9,105849.42327886379,38.6966,-98.2047,6366.0
20055.0,KS,Finney County,11.9,2.1,5,219501.57079838405,38.0443,-100.737,38001.0
20057.0,KS,Ford County,11.6,2.1,5,176806.29716609867,37.6917,-99.888,34133.0
20059.0,KS,Franklin County,11.1,2.5,6,209799.52562088254,38.5645,-95.2859,25994.0
20061.0,KS,Geary County,11.0,3.8,3,175533.59763785673,39.0024,-96.7525,35895.0
20063.0,KS,Gove County,9.4,2.3,9,120627.29847963373,38.9161,-100.483,2796.0
20065.0,KS,Graham County,12.7,2.6,9,87524.26231705095,39.3497,-99.8832,2406.0
20067.0,KS,Grant County,11.2,2.7,7,133421.67405163948,37.5623,-101.308,7284.0
20069.0,KS,Gray County,8.7,2.0,9,193166.58009622028,37.7382,-100.4379,5696.0
20071.0,KS,Greeley County,11.1,1.8,9,131276.05673771776,38.4806,-101.806,1296.0
20073.0,KS,Greenwood County,14.3,2.7,8,73165.78040572727,37.8778,-96.2326,5956.0
20075.0,KS,Hamilton County,11.5,1.8,9,128319.82758498643,37.9991,-101.7912,2485.0
20077.0,KS,Harper County,14.1,2.3,8,74614.1188253553,37.1916,-98.0755,5446.0
20079.0,KS,Harvey County,8.2,2.9,2,159478.00665671736,38.0432,-97.4272,33823.0
20081.0,KS,Haskell County,10.8,2.0,9,152893.86629117458,37.5622,-100.8712,3695.0
20083.0,KS,Hodgeman County,10.4,2.2,9,119148.10464513817,38.0875,-99.8979,1676.0
20085.0,KS,Jackson County,10.5,2.3,3,208695.85380764154,39.4168,-95.7937,13277.0
20087.0,KS,Jefferson County,8.3,2.5,3,230638.46793500707,39.2358,-95.3834,18391.0
20089.0,KS,Jewell County,12.1,2.8,9,88021.83437320733,39.7847,-98.2183,2909.0
20091.0,KS,Johnson County,5.3,2.4,1,398517.7876102963,38.8838,-94.8223,614764.0
20093.0,KS,Kearny County,10.2,2.0,9,175549.75094924137,38.0003,-101.3199,3910.0
20095.0,KS,Kingman County,11.9,2.7,8,136374.69861331646,37.5589,-98.1363,7284.0
20097.0,KS,Kiowa County,12.1,2.5,9,126538.39857202102,37.5582,-99.2861,2422.0
20099.0,KS,Labette County,15.5,2.9,7,80343.23747955447,37.1913,-95.2976,19949.0
20101.0,KS,Lane County,10.2,2.7,9,91493.71974997569,38.4813,-100.4664,1497.0
20103.0,KS,Leavenworth County,8.3,2.7,1,295889.70872971567,39.1993,-95.038,82493.0
20105.0,KS,Lincoln County,11.8,2.1,9,104764.47224526982,39.0453,-98.2077,2924.0
20107.0,KS,Linn County,11.0,3.9,1,133687.26892147303,38.2123,-94.843,9723.0
20109.0,KS,Logan County,10.2,1.8,9,127466.70888188168,38.9173,-101.1484,2720.0
20111.0,KS,Lyon County,13.7,2.6,4,152796.54290430664,38.4562,-96.1526,32145.0
20113.0,KS,McPherson County,8.3,2.0,7,192329.0658919851,38.3917,-97.648,30130.0
20115.0,KS,Marion County,10.9,2.5,8,122524.84199141913,38.3589,-97.0969,11795.0
20117.0,KS,Marshall County,9.2,2.1,8,124377.0136903519,39.7836,-96.5229,10001.0
20119.0,KS,Meade County,9.6,2.1,9,107886.30399589684,37.2382,-100.3662,3949.0
20121.0,KS,Miami County,7.0,2.6,1,325379.9059349113,38.5635,-94.8381,34625.0
20123.0,KS,Mitchell County,10.5,2.0,9,115931.34556522741,39.3933,-98.2094,5767.0
20125.0,KS,Montgomery County,17.3,3.0,7,81792.03067729805,37.1925,-95.7429,31143.0
20127.0,KS,Morris County,11.7,2.5,8,145193.03010764366,38.6874,-96.6499,5388.0
20129.0,KS,Morton County,12.0,2.6,9,96485.95814896458,37.1914,-101.7992,2647.0
20131.0,KS,Nemaha County,8.4,1.7,9,181725.60616361882,39.7834,-96.0141,10213.0
20133.0,KS,Neosho County,14.9,3.5,7,93726.78465687932,37.5585,-95.3068,15715.0
20135.0,KS,Ness County,10.2,2.4,9,78883.96489474557,38.4794,-99.9161,2659.0
20137.0,KS,Norton County,13.9,2.0,9,91142.22817183909,39.7844,-99.9035,5392.0
20139.0,KS,Osage County,10.8,2.6,3,177927.42963874512,38.6523,-95.7269,15780.0
20141.0,KS,Osborne County,12.1,2.2,9,69835.48062962187,39.3503,-98.7679,3473.0
20143.0,KS,Ottawa County,10.2,2.3,9,142144.63334377843,39.1325,-97.6502,5782.0
20145.0,KS,Pawnee County,12.8,2.6,9,76841.27830584194,38.1813,-99.2367,6220.0
20147.0,KS,Phillips County,10.1,2.2,9,94473.49607446526,39.7846,-99.347,4874.0
20149.0,KS,Pottawatomie County,7.9,2.3,3,278605.30850794906,39.379,-96.3424,25808.0
20151.0,KS,Pratt County,9.5,2.1,7,106244.9706604502,37.6477,-98.7396,9120.0
20153.0,KS,Rawlins County,10.9,1.9,9,105728.38882756118,39.7852,-101.0765,2533.0
20155.0,KS,Reno County,11.8,2.9,4,128011.60351665968,37.953,-98.086,61693.0
20157.0,KS,Republic County,11.9,2.1,9,95692.69418796411,39.8278,-97.6506,4662.0
20159.0,KS,Rice County,10.6,2.5,9,92562.27114693019,38.3472,-98.201,9389.0
20161.0,KS,Riley County,18.0,2.6,3,234408.72856371262,39.2966,-96.7352,71710.0
20163.0,KS,Rooks County,11.2,2.6,9,94385.8987147309,39.3502,-99.325,4869.0
20165.0,KS,Rush County,12.4,2.2,9,64940.91202389282,38.5231,-99.3092,2957.0
20167.0,KS,Russell County,13.1,2.3,9,91111.1831273866,38.9148,-98.7624,6717.0
20169.0,KS,Saline County,11.5,2.4,5,162205.29176440855,38.7838,-97.65,53801.0
20171.0,KS,Scott County,7.9,2.0,9,153752.70606625892,38.4822,-100.9069,5071.0
20173.0,KS,Sedgwick County,13.6,2.9,2,195117.47611464624,37.6848,-97.461,524810.0
20175.0,KS,Seward County,14.4,2.5,7,134492.2825526174,37.1933,-100.8513,21640.0
20177.0,KS,Shawnee County,12.6,2.7,3,178496.19645885192,39.0415,-95.7565,178315.0
20179.0,KS,Sheridan County,11.0,2.1,9,177819.6189615861,39.3503,-100.4418,2442.0
20181.0,KS,Sherman County,13.7,2.4,9,129776.37902741838,39.3514,-101.72,5919.0
20183.0,KS,Smith County,11.9,2.0,9,82468.76790399203,39.7852,-98.7855,3579.0
20185.0,KS,Stafford County,14.0,2.3,9,81264.77362302305,38.031,-98.7174,4004.0
20187.0,KS,Stanton County,10.7,2.1,9,127351.98109204604,37.563,-101.7842,2018.0
20189.0,KS,Stevens County,10.5,2.1,9,134764.6210280985,37.1923,-101.3121,5212.0
20191.0,KS,Sumner County,11.2,2.7,2,123981.01608580198,37.2373,-97.4765,22386.0
20193.0,KS,Thomas County,9.4,1.9,7,154474.56741040974,39.3509,-101.0555,7913.0
20195.0,KS,Trego County,10.7,3.0,9,117488.82302568387,38.9143,-99.8728,2778.0
20197.0,KS,Wabaunsee County,9.0,2.6,3,211560.03112057212,38.9533,-96.205,6961.0
20199.0,KS,Wallace County,13.4,2.2,9,118882.86225176662,38.9167,-101.7636,1459.0
20201.0,KS,Washington County,11.3,2.1,9,126531.0341460607,39.7842,-97.0875,5519.0
20203.0,KS,Wichita County,10.5,2.2,9,136083.4554679657,38.4821,-101.3474,2115.0
20205.0,KS,Wilson County,14.3,3.1,9,85133.54104291424,37.5593,-95.7434,8559.0
20207.0,KS,Woodson County,13.9,3.4,9,84904.6458295757,37.8867,-95.7401,3118.0
20209.0,KS,Wyandotte County,17.1,3.4,1,175766.7481512329,39.1146,-94.7646,167277.0
21001.0,KY,Adair County,22.1,5.0,7,141133.81779262907,37.1042,-85.2806,19016.0
21003.0,KY,Allen County,16.4,4.0,3,175865.67074443272,36.7513,-86.1904,21029.0
21005.0,KY,Anderson County,9.0,3.3,6,214395.00428195152,38.0039,-84.991,24098.0
21007.0,KY,Ballard County,14.4,4.9,3,120197.5083559522,37.0585,-88.9995,7678.0
21009.0,KY,Barren County,18.0,4.4,6,183348.89468123144,36.9656,-85.9337,44670.0
21011.0,KY,Bath County,17.8,5.6,8,153988.013668927,38.145,-83.7427,12812.0
21013.0,KY,Bell County,28.9,5.6,7,113710.31544069745,36.7306,-83.6741,23878.0
21015.0,KY,Boone County,7.4,3.6,1,296215.8677781604,38.9699,-84.7278,137676.0
21017.0,KY,Bourbon County,14.2,3.6,2,209878.6189398572,38.2067,-84.2171,20174.0
21019.0,KY,Boyd County,18.1,5.6,2,129861.4978195024,38.3596,-82.6878,48043.0
21021.0,KY,Boyle County,14.7,4.5,7,204192.4055569906,37.6244,-84.8668,30708.0
21023.0,KY,Bracken County,14.3,4.7,1,161445.60248156445,38.6888,-84.0901,8427.0
21025.0,KY,Breathitt County,30.3,7.5,9,81051.12788480855,37.5216,-83.3241,13438.0
21027.0,KY,Breckinridge County,16.5,4.9,8,146067.2093301594,37.7734,-86.4293,20722.0
21029.0,KY,Bullitt County,8.4,4.1,1,257485.30748262696,37.9701,-85.6959,83209.0
21031.0,KY,Butler County,15.0,4.5,3,183061.89112029437,37.2073,-86.6816,12373.0
21033.0,KY,Caldwell County,15.8,3.9,7,128237.74138959878,37.1454,-87.8679,12631.0
21035.0,KY,Calloway County,17.6,4.4,7,153333.86348592734,36.621,-88.2723,37882.0
21037.0,KY,Campbell County,10.3,3.6,1,247248.96151803838,38.9465,-84.3795,93193.0
21039.0,KY,Carlisle County,12.9,3.9,3,113244.98953211046,36.8532,-88.971,4763.0
21041.0,KY,Carroll County,16.2,3.5,6,159787.0373157332,38.6678,-85.1236,10878.0
21043.0,KY,Carter County,19.2,7.6,2,132089.34860900973,38.3182,-83.0495,26515.0
21045.0,KY,Casey County,21.1,4.1,9,121250.31368371399,37.3223,-84.9283,15951.0
21047.0,KY,Christian County,17.8,5.1,2,169832.06464203706,36.8941,-87.4904,72599.0
21049.0,KY,Clark County,10.8,3.8,2,218296.64933719923,37.9708,-84.1474,37004.0
21051.0,KY,Clay County,37.2,6.4,9,108565.05627933558,37.1597,-83.7146,20105.0
21053.0,KY,Clinton County,23.6,5.2,9,140507.5331291355,36.7274,-85.1362,9240.0
21055.0,KY,Crittenden County,17.9,4.1,8,116545.08025595729,37.3527,-88.0972,8972.0
21057.0,KY,Cumberland County,23.1,3.4,9,143036.05308423415,36.7866,-85.3885,5948.0
21059.0,KY,Daviess County,16.2,4.3,3,183722.60903447494,37.7318,-87.0873,103195.0
21061.0,KY,Edmonson County,16.0,5.1,3,167115.76923163576,37.2088,-86.2384,12243.0
21063.0,KY,Elliott County,25.8,8.2,8,133847.62229984306,38.1179,-83.0976,7336.0
21065.0,KY,Estill County,22.7,5.0,8,103204.45678720015,37.6924,-83.9643,14079.0
21067.0,KY,Fayette County,15.7,3.4,2,282988.1924786206,38.0423,-84.4587,321122.0
21069.0,KY,Fleming County,18.1,4.8,9,154278.7692356612,38.3701,-83.6967,15221.0
21071.0,KY,Floyd County,26.5,6.0,7,100849.24734675243,37.5571,-82.7457,35342.0
21073.0,KY,Franklin County,11.8,3.6,4,202951.09075147405,38.2392,-84.877,51563.0
21075.0,KY,Fulton County,25.9,5.0,9,77240.69268817044,36.554,-89.1874,6440.0
21077.0,KY,Gallatin County,13.1,4.0,1,195434.47505505182,38.7569,-84.8593,8749.0
21079.0,KY,Garrard County,17.6,3.9,8,207430.79580701923,37.6396,-84.5377,17346.0
21081.0,KY,Grant County,13.0,4.0,1,226863.9729571035,38.6488,-84.6246,25238.0
21083.0,KY,Graves County,17.6,4.2,6,141908.7246241355,36.7231,-88.6512,36612.0
21085.0,KY,Grayson County,17.8,4.6,6,173463.95182686628,37.4608,-86.3439,26586.0
21087.0,KY,Green County,17.6,3.8,8,143368.51348260837,37.264,-85.5531,11278.0
21089.0,KY,Greenup County,15.9,6.5,2,131682.5325807714,38.5457,-82.9223,35639.0
21091.0,KY,Hancock County,11.9,4.6,8,162606.72613242862,37.8415,-86.7779,9032.0
21093.0,KY,Hardin County,14.2,4.1,3,215341.48654061908,37.6979,-85.9634,111452.0
21095.0,KY,Harlan County,29.7,6.6,7,69086.5302975469,36.8569,-83.218,26185.0
21097.0,KY,Harrison County,13.9,3.8,6,169711.10036135977,38.4418,-84.3314,18971.0
21099.0,KY,Hart County,17.7,4.4,8,153264.32621252362,37.2999,-85.8847,19470.0
21101.0,KY,Henderson County,13.2,4.0,4,173543.97086244103,37.7958,-87.5729,44493.0
21103.0,KY,Henry County,14.6,3.7,1,208331.35716321864,38.4485,-85.1189,15774.0
21105.0,KY,Hickman County,18.7,4.5,8,129160.89083945012,36.6781,-88.9761,4470.0
21107.0,KY,Hopkins County,16.0,4.4,5,144117.36352565218,37.3088,-87.5408,45143.0
21109.0,KY,Jackson County,23.9,5.6,9,144408.77498417528,37.4198,-84.0058,13003.0
21111.0,KY,Jefferson County,16.2,3.9,1,229127.37147085558,38.1872,-85.6591,777392.0
21113.0,KY,Jessamine County,10.3,3.5,2,267583.5596160849,37.872,-84.5809,53792.0
21115.0,KY,Johnson County,25.0,6.6,7,122873.82511928675,37.8466,-82.8315,22464.0
21117.0,KY,Kenton County,10.6,3.7,1,244575.87262588338,38.9334,-84.5333,169817.0
21119.0,KY,Knott County,26.1,6.7,9,115588.08429378038,37.354,-82.9541,14046.0
21121.0,KY,Knox County,35.0,5.8,7,130676.25019782562,36.8906,-83.854,30034.0
21123.0,KY,Larue County,16.1,4.4,3,194583.36998867107,37.5458,-85.6979,15028.0
21125.0,KY,Laurel County,21.8,4.5,5,161730.6882761081,37.1107,-84.1178,62731.0
21127.0,KY,Lawrence County,20.6,5.7,2,160022.77361491055,38.0679,-82.7348,16171.0
21129.0,KY,Lee County,31.1,5.8,9,127461.50926726821,37.5948,-83.7162,7375.0
21131.0,KY,Leslie County,26.7,6.9,9,68826.43248478182,37.0941,-83.3811,10261.0
21133.0,KY,Letcher County,23.8,6.3,9,92394.48571312854,37.1212,-82.8553,21146.0
21135.0,KY,Lewis County,22.1,8.0,8,113073.22409147987,38.5315,-83.3781,13028.0
21137.0,KY,Lincoln County,19.1,5.1,9,168162.838234639,37.4554,-84.6608,24415.0
21139.0,KY,Livingston County,14.3,5.0,3,133227.56355652606,37.2096,-88.3537,8941.0
21141.0,KY,Logan County,14.8,4.1,6,177421.19074757322,36.8597,-86.8789,27731.0
21143.0,KY,Lyon County,15.9,4.4,8,155328.91174628955,37.0191,-88.0832,8831.0
21145.0,KY,McCracken County,15.7,4.0,3,163610.1626078181,37.054,-88.7128,67584.0
21147.0,KY,McCreary County,35.9,5.9,9,98623.31662031705,36.7371,-84.4842,16905.0
21149.0,KY,McLean County,14.7,4.6,3,120676.87549660142,37.5292,-87.2636,9127.0
21151.0,KY,Madison County,13.8,3.9,4,242336.17297562252,37.7202,-84.278,94064.0
21153.0,KY,Magoffin County,29.2,9.8,9,123442.23757132587,37.7065,-83.0649,11495.0
21155.0,KY,Marion County,14.6,3.4,6,181111.34407439566,37.5525,-85.2696,19680.0
21157.0,KY,Marshall County,13.8,4.0,8,148889.17719210003,36.8835,-88.3294,31728.0
21159.0,KY,Martin County,48.1,8.3,8,106126.04593517404,37.8016,-82.5132,11181.0
21161.0,KY,Mason County,17.0,5.2,6,142970.32700950152,38.5952,-83.8242,16995.0
21163.0,KY,Meade County,11.7,4.6,1,221498.67345303393,37.9697,-86.217,30032.0
21165.0,KY,Menifee County,25.1,6.2,9,131713.34738195938,37.9414,-83.5989,6203.0
21167.0,KY,Mercer County,13.4,4.1,6,198248.73905906233,37.811,-84.8745,22824.0
21169.0,KY,Metcalfe County,24.2,4.8,9,137178.69111783121,36.9905,-85.6292,10372.0
21171.0,KY,Monroe County,23.7,4.3,8,123612.10405197964,36.7122,-85.7165,11318.0
21173.0,KY,Montgomery County,14.6,4.8,6,188285.24096017677,38.0335,-83.9131,28271.0
21175.0,KY,Morgan County,24.7,5.1,9,132088.3608024914,37.9223,-83.2589,13938.0
21177.0,KY,Muhlenberg County,20.2,6.1,6,123846.33966668617,37.2158,-87.142,30712.0
21179.0,KY,Nelson County,12.9,3.6,1,228931.31369325033,37.8052,-85.466,47102.0
21181.0,KY,Nicholas County,17.2,4.3,8,144574.41609819344,38.3356,-84.0153,7655.0
21183.0,KY,Ohio County,16.0,5.6,6,131789.90863529016,37.4782,-86.8489,23704.0
21185.0,KY,Oldham County,5.8,3.4,1,399707.537208698,38.3994,-85.4483,68600.0
21187.0,KY,Owen County,15.4,3.7,8,145733.61296364848,38.5197,-84.8281,11270.0
21189.0,KY,Owsley County,33.1,6.6,9,131829.39901626893,37.4192,-83.6831,4021.0
21191.0,KY,Pendleton County,13.2,4.0,1,193341.35094284613,38.6956,-84.3603,14683.0
21193.0,KY,Perry County,29.7,5.6,7,94233.64843901663,37.2443,-83.2215,27847.0
21195.0,KY,Pike County,23.4,5.7,7,93322.4901112666,37.4691,-82.3958,57466.0
21197.0,KY,Powell County,22.1,4.4,8,144298.3500384175,37.8311,-83.8237,13057.0
21199.0,KY,Pulaski County,17.0,4.8,5,176357.13800579822,37.1039,-84.5772,65503.0
21201.0,KY,Robertson County,19.6,5.2,8,158453.2261430797,38.5188,-84.052,2239.0
21203.0,KY,Rockcastle County,21.8,4.7,9,135114.196879747,37.3652,-84.316,16144.0
21205.0,KY,Rowan County,24.0,5.2,6,147208.26574941285,38.1963,-83.4211,24525.0
21207.0,KY,Russell County,22.3,5.3,9,132664.20110658766,36.9911,-85.0587,18117.0
21209.0,KY,Scott County,10.0,3.3,2,281125.6548702197,38.2916,-84.5839,58269.0
21211.0,KY,Shelby County,11.6,3.5,1,287669.89693688194,38.2155,-85.1948,48599.0
21213.0,KY,Simpson County,13.7,3.8,6,221358.74514077324,36.742,-86.5823,19786.0
21215.0,KY,Spencer County,7.0,3.7,1,323182.8695228974,38.0325,-85.3278,19875.0
21217.0,KY,Taylor County,19.4,3.8,7,175133.11314441622,37.3665,-85.3279,26205.0
21219.0,KY,Todd County,16.3,3.8,8,175999.9382579446,36.8357,-87.1792,12330.0
21221.0,KY,Trigg County,13.6,4.7,2,137508.91592697587,36.8064,-87.8733,14211.0
21223.0,KY,Trimble County,13.2,3.9,8,190851.38891944708,38.613,-85.3375,8531.0
21225.0,KY,Union County,14.5,4.9,8,120102.53788924663,37.6584,-87.9454,13379.0
21227.0,KY,Warren County,14.2,3.9,3,266720.33304679586,36.9936,-86.4238,137549.0
21229.0,KY,Washington County,13.1,3.3,8,204047.28339653535,37.7534,-85.1748,12091.0
21231.0,KY,Wayne County,25.0,5.6,7,146494.58829993638,36.8013,-84.8286,19592.0
21233.0,KY,Webster County,15.4,4.2,9,104172.29605349182,37.5184,-87.6832,12873.0
21235.0,KY,Whitley County,26.9,4.8,7,145626.99210081086,36.7581,-84.1452,36755.0
21237.0,KY,Wolfe County,28.6,6.3,9,192230.16666268048,37.7393,-83.4932,6484.0
21239.0,KY,Woodford County,10.6,3.1,2,289913.1191445781,38.0424,-84.7436,27017.0
22001.0,LA,Acadia Parish,25.0,3.7,2,149340.5211121389,30.2906,-92.412,57218.0
22003.0,LA,Allen Parish,20.1,4.2,6,119829.43141105512,30.653,-92.828,22552.0
22005.0,LA,Ascension Parish,10.7,3.0,2,278164.7365439501,30.2036,-90.9113,128593.0
22007.0,LA,Assumption Parish,18.3,4.3,2,170199.50869911254,29.9024,-91.0608,20720.0
22009.0,LA,Avoyelles Parish,27.0,4.2,6,137075.33960375263,31.0763,-92.0014,39176.0
22011.0,LA,Beauregard Parish,15.7,3.6,6,156776.79104637826,30.6486,-93.3432,36646.0
22013.0,LA,Bienville Parish,25.3,4.3,8,104843.23467018617,32.3473,-93.0561,12769.0
22015.0,LA,Bossier Parish,13.8,3.2,2,220782.6130925671,32.6784,-93.6049,129134.0
22017.0,LA,Caddo Parish,22.8,4.1,2,130403.96508753937,32.5806,-93.8823,232973.0
22019.0,LA,Calcasieu Parish,17.6,3.4,2,193919.55456242835,30.2293,-93.3581,208668.0
22021.0,LA,Caldwell Parish,20.3,4.0,8,128733.57155273645,32.0925,-92.1166,9563.0
22023.0,LA,Cameron Parish,13.8,2.8,2,209298.15427172443,29.8754,-93.1937,5222.0
22025.0,LA,Catahoula Parish,30.0,4.3,9,115096.46294091827,31.6662,-91.847,8738.0
22027.0,LA,Claiborne Parish,29.2,4.0,9,110339.38791948288,32.8227,-92.9958,14019.0
22029.0,LA,Concordia Parish,25.2,4.7,6,107596.65212320267,31.4459,-91.6401,18325.0
22031.0,LA,De Soto Parish,17.7,4.1,2,156024.06215153265,32.0554,-93.7373,26897.0
22033.0,LA,East Baton Rouge Parish,20.0,3.4,2,218186.5760458078,30.5383,-91.0956,452821.0
22035.0,LA,East Carroll Parish,46.5,8.8,8,71627.6362462618,32.7325,-91.235,7195.0
22037.0,LA,East Feliciana Parish,19.9,3.5,2,224080.43223308798,30.8451,-91.0455,19378.0
22039.0,LA,Evangeline Parish,22.2,3.9,6,121721.25157394665,30.7289,-92.4059,32162.0
22041.0,LA,Franklin Parish,23.9,5.2,6,117778.5143532957,32.1333,-91.6738,19590.0
22043.0,LA,Grant Parish,20.4,3.7,3,157480.38921099386,31.5997,-92.5595,22123.0
22045.0,LA,Iberia Parish,22.1,4.1,4,132325.64736446197,29.8967,-91.7308,69194.0
22047.0,LA,Iberville Parish,20.2,4.2,2,170106.93347306064,30.2586,-91.3495,29950.0
22049.0,LA,Jackson Parish,19.4,3.3,6,112024.17916356758,32.302,-92.5578,14939.0
22051.0,LA,Jefferson Parish,17.1,3.5,1,235590.73956889656,29.7882,-90.1276,432484.0
22053.0,LA,Jefferson Davis Parish,17.8,3.8,2,131102.24793930637,30.2677,-92.8141,32083.0
22055.0,LA,Lafayette Parish,16.9,3.2,2,229864.73190879248,30.2068,-92.0639,245075.0
22057.0,LA,Lafourche Parish,19.4,3.2,3,182452.87383367217,29.5662,-90.4256,96670.0
22059.0,LA,La Salle Parish,20.0,3.0,8,151115.76188003944,31.6769,-92.1605,14804.0
22061.0,LA,Lincoln Parish,28.4,3.8,4,208157.02099324035,32.6016,-92.6649,48160.0
22063.0,LA,Livingston Parish,14.1,3.0,2,238283.31339254178,30.4401,-90.7279,145583.0
22065.0,LA,Madison Parish,34.1,5.5,6,81552.98527399333,32.3644,-91.2427,9757.0
22067.0,LA,Morehouse Parish,31.3,5.9,3,91215.19788152805,32.8202,-91.8018,24967.0
22069.0,LA,Natchitoches Parish,24.3,4.1,6,175700.43667960988,31.7234,-93.0962,37047.0
22071.0,LA,Orleans Parish,23.1,4.5,1,250453.08668161064,30.0687,-89.9289,376035.0
22073.0,LA,Ouachita Parish,21.4,3.8,3,162096.1387193223,32.4784,-92.1549,158916.0
22075.0,LA,Plaquemines Parish,15.6,3.3,1,297008.9502536263,29.4406,-89.61,23070.0
22077.0,LA,Pointe Coupee Parish,20.1,3.8,2,187191.1635860771,30.7095,-91.6008,20438.0
22079.0,LA,Rapides Parish,19.9,3.5,3,155608.2217963977,31.1986,-92.5332,128470.0
22081.0,LA,Red River Parish,24.5,3.5,8,139709.59418453622,32.0931,-93.3398,7529.0
22083.0,LA,Richland Parish,25.1,4.6,3,148307.31100642018,32.4178,-91.7635,19908.0
22085.0,LA,Sabine Parish,19.3,3.8,8,182197.079235501,31.564,-93.5547,22085.0
22087.0,LA,St. Bernard Parish,18.0,4.2,1,216734.69678298788,29.8691,-89.5549,44172.0
22089.0,LA,St. Charles Parish,12.9,3.2,1,248207.3118370781,29.9055,-90.3582,51863.0
22091.0,LA,St. Helena Parish,22.8,5.3,2,174397.8996334512,30.822,-90.7103,10849.0
22093.0,LA,St. James Parish,15.1,4.5,1,192198.37935650133,30.027,-90.7931,19797.0
22095.0,LA,St. John the Baptist Parish,16.8,4.4,1,193448.67213696142,30.1264,-90.4709,41342.0
22097.0,LA,St. Landry Parish,23.2,4.5,4,141937.30458288113,30.5989,-92.0058,82128.0
22099.0,LA,St. Martin Parish,18.1,3.6,2,163490.4655784667,30.1291,-91.6083,51559.0
22101.0,LA,St. Mary Parish,21.4,4.2,4,119099.63897860007,29.7207,-91.4486,48455.0
22103.0,LA,St. Tammany Parish,11.9,3.3,2,279962.51886104024,30.4103,-89.9584,269331.0
22105.0,LA,Tangipahoa Parish,19.0,4.3,3,215366.16612833706,30.6266,-90.4057,135218.0
22107.0,LA,Tensas Parish,30.8,5.1,9,170399.34772242513,32.0019,-91.3401,3992.0
22109.0,LA,Terrebonne Parish,16.1,3.4,3,170941.35660568238,29.4148,-90.8663,107362.0
22111.0,LA,Union Parish,18.3,4.2,3,148449.66171046253,32.8318,-92.3748,20914.0
22113.0,LA,Vermilion Parish,17.5,3.6,2,164618.39270328643,29.8465,-92.3242,57031.0
22115.0,LA,Vernon Parish,16.7,4.6,4,158604.59915270354,31.1083,-93.1843,47764.0
22117.0,LA,Washington Parish,23.3,4.3,6,134822.0830119975,30.8533,-90.0405,45238.0
22119.0,LA,Webster Parish,20.3,4.4,6,136336.42184904355,32.7135,-93.335,36189.0
22121.0,LA,West Baton Rouge Parish,13.6,3.3,2,235280.27537749798,30.4636,-91.3127,27666.0
22123.0,LA,West Carroll Parish,19.6,6.2,8,125231.09468038994,32.7885,-91.4568,9622.0
22125.0,LA,West Feliciana Parish,22.3,2.6,2,327198.5094637015,30.8798,-91.42,15381.0
22127.0,LA,Winn Parish,24.2,4.2,8,110697.28253666541,31.9442,-92.6369,13506.0
23001.0,ME,Androscoggin County,13.0,3.0,3,292132.13716403284,44.1658,-70.2064,112323.0
23003.0,ME,Aroostook County,12.1,3.9,7,146830.6805175149,46.6589,-68.5989,67227.0
23005.0,ME,Cumberland County,6.9,2.4,2,500878.7439412145,43.8466,-70.3996,305940.0
23007.0,ME,Franklin County,13.6,3.5,8,260375.9518654898,44.974,-70.444,30145.0
23009.0,ME,Hancock County,10.1,3.2,8,386753.2075073439,44.6647,-68.3584,56084.0
23011.0,ME,Kennebec County,11.5,2.6,4,278270.3175151371,44.4091,-69.7673,125614.0
23013.0,ME,Knox County,8.6,2.9,7,403374.6156105312,44.141,-69.1686,40860.0
23015.0,ME,Lincoln County,9.8,2.8,8,403370.93578056316,44.0665,-69.5434,35840.0
23017.0,ME,Oxford County,14.5,3.2,6,287583.8251277928,44.4999,-70.7566,58728.0
23019.0,ME,Penobscot County,12.6,3.1,3,240202.0674200475,45.4006,-68.6495,153571.0
23021.0,ME,Piscataquis County,15.3,4.2,8,203264.2147819302,45.8374,-69.2846,17125.0
23023.0,ME,Sagadahoc County,8.7,2.3,2,381282.67374432954,43.9598,-69.8546,37093.0
23025.0,ME,Somerset County,13.3,4.2,6,200926.9869349479,45.5139,-69.9589,50852.0
23027.0,ME,Waldo County,12.7,3.0,8,308020.3973526123,44.5028,-69.1454,40006.0
23029.0,ME,Washington County,20.1,4.1,9,184893.7974301744,45.0307,-67.6287,31261.0
23031.0,ME,York County,8.1,2.6,2,464924.5550399246,43.4782,-70.7144,214731.0
24001.0,MD,Allegany County,18.8,2.8,4,134429.6744622336,39.6214,-78.6976,67762.0
24003.0,MD,Anne Arundel County,6.3,1.8,1,464949.29976432,39.0065,-76.6051,590936.0
24005.0,MD,Baltimore County,9.8,2.2,1,331347.8954010707,39.4629,-76.6395,849586.0
24009.0,MD,Calvert County,4.9,1.9,3,440342.1505639821,38.5434,-76.5687,93791.0
24011.0,MD,Caroline County,13.3,2.1,6,291743.019318969,38.8717,-75.8316,33406.0
24013.0,MD,Carroll County,6.4,1.7,1,446935.18125391845,39.5629,-77.0225,174318.0
24015.0,MD,Cecil County,10.0,2.2,1,335428.57728159265,39.5712,-75.9407,104366.0
24017.0,MD,Charles County,7.8,2.2,1,424232.78046842903,38.5073,-76.9922,168710.0
24019.0,MD,Dorchester County,15.7,2.3,6,243933.69489897383,38.4829,-76.0126,32612.0
24021.0,MD,Frederick County,6.4,2.0,1,460035.3619331014,39.4722,-77.398,280341.0
24023.0,MD,Garrett County,10.8,2.3,8,317732.4068566793,39.5289,-79.2729,28713.0
24025.0,MD,Harford County,7.3,2.0,1,384512.06227725506,39.5611,-76.3171,262509.0
24027.0,MD,Howard County,5.6,1.7,1,584321.2110833292,39.2507,-76.9312,333916.0
24029.0,MD,Kent County,13.0,2.4,6,335247.67903758807,39.2556,-76.039,19265.0
24031.0,MD,Montgomery County,7.2,1.9,1,588200.2471839926,39.1363,-77.2042,1057586.0
24033.0,MD,Prince George's County,11.0,2.2,1,407520.8741093058,38.8295,-76.8473,955584.0
24035.0,MD,Queen Anne's County,6.5,1.8,1,463750.50358135323,39.068,-76.02,50951.0
24037.0,MD,St. Mary's County,8.4,2.0,3,389542.1846348975,38.3024,-76.6058,114372.0
24039.0,MD,Somerset County,22.9,3.2,3,180821.56953030574,38.1158,-75.7518,24685.0
24041.0,MD,Talbot County,10.1,2.2,6,446700.23659707163,38.7714,-76.0971,37707.0
24043.0,MD,Washington County,11.5,2.3,2,294580.09650344955,39.6036,-77.814,155033.0
24045.0,MD,Wicomico County,15.4,2.5,3,242351.09074858768,38.3733,-75.6208,104117.0
24047.0,MD,Worcester County,10.1,3.3,4,411455.95664313954,38.2128,-75.334,53279.0
24510.0,MD,Baltimore city,20.2,2.9,1,172175.3916175693,39.3051,-76.6144,577193.0
25001.0,MA,Barnstable County,8.9,4.2,3,677574.8073069212,41.7244,-70.2903,230073.0
25003.0,MA,Berkshire County,12.5,3.6,3,341319.64437314833,42.3707,-73.2063,128047.0
25005.0,MA,Bristol County,12.7,4.1,1,459705.8391052926,41.7972,-71.1145,578436.0
25007.0,MA,Dukes County,8.5,4.4,7,1404125.6795115608,41.3961,-70.65,20751.0
25009.0,MA,Essex County,9.6,3.5,1,622138.3223161276,42.6732,-70.9524,807258.0
25011.0,MA,Franklin County,11.9,2.9,4,319264.1459347771,42.5831,-72.5918,70922.0
25013.0,MA,Hampden County,17.6,4.3,2,297017.83822515875,42.1351,-72.6316,462853.0
25015.0,MA,Hampshire County,12.4,2.9,3,389515.88799725875,42.3402,-72.6638,156595.0
25017.0,MA,Middlesex County,7.7,2.9,1,710267.4366665571,42.4856,-71.3918,1622896.0
25019.0,MA,Nantucket County,6.5,5.8,7,2639658.8034290024,41.2831,-70.0692,14299.0
25021.0,MA,Norfolk County,7.7,3.1,1,668336.5148246187,42.1603,-71.2118,724540.0
25023.0,MA,Plymouth County,8.0,3.5,1,555488.0603730917,41.9511,-70.8115,531889.0
25025.0,MA,Suffolk County,15.1,3.2,1,680329.7452733925,42.3329,-71.0735,782172.0
25027.0,MA,Worcester County,10.9,3.5,2,425852.2405938526,42.3514,-71.9077,861664.0
26001.0,MI,Alcona County,15.8,7.3,9,165910.81031896683,44.6854,-83.5938,10310.0
26003.0,MI,Alger County,12.9,7.7,9,188567.4783823279,46.4086,-86.604,8813.0
26005.0,MI,Allegan County,9.9,3.4,4,283607.4941188615,42.5913,-85.8883,120913.0
26007.0,MI,Alpena County,15.9,4.5,7,165095.7626241511,45.0348,-83.6282,28908.0
26009.0,MI,Antrim County,10.1,5.4,8,309648.659700523,44.9991,-85.1402,23876.0
26011.0,MI,Arenac County,15.0,6.9,8,137507.36567463708,44.0655,-83.8952,15054.0
26013.0,MI,Baraga County,15.6,6.2,9,140740.2032643428,46.6626,-88.3652,8249.0
26015.0,MI,Barry County,8.3,3.5,1,247957.8487642994,42.595,-85.309,62982.0
26017.0,MI,Bay County,12.8,4.9,3,147463.81703809366,43.7075,-83.9924,103235.0
26019.0,MI,Benzie County,9.7,5.0,3,342071.70206421614,44.6387,-86.0155,18177.0
26021.0,MI,Berrien County,13.6,4.2,3,235208.14987475763,41.9547,-86.4123,153411.0
26023.0,MI,Branch County,14.9,3.9,6,184604.0662503923,41.9161,-85.059,44914.0
26025.0,MI,Calhoun County,14.0,4.3,3,161429.70289460276,42.2465,-85.0056,133846.0
26027.0,MI,Cass County,12.3,4.4,2,231653.91741197457,41.9154,-85.9935,51606.0
