fips_code,county_name,state_name,rucc,area_classification,latitude,longitude,population,median_age,birth_rate,death_rate,males_per_100_females,poverty_rate,unemployment_rate,labor_force_participation_rate,median_household_income,mean_household_income,pct_pop_25plus_highschool_plus,pct_pop_25plus_bachelor_plus,pct_households_limited_english_proficiency,pct_pop_health_insured,pct_households_with_internet,mean_zhvi_home_value,median_monthly_housing_cost,median_monthly_housing_cost_owner_occupied,median_monthly_housing_cost_renter_occupied,pct_households_owner_occupied,pct_households_renter_occupied,pct_employed_resource_extraction,pct_employed_manufacturing_construction,pct_employed_trade_transportation_utilities,pct_employed_knowledge_professional,pct_employed_public_social,pct_employed_hospitality_other
01001,Autauga County,Alabama,2,Metro,32.534927,-86.642734,60342,39.2,11.9,10.3,93.6,0.117,0.022,0.59,69841,93367,0.9028,0.2828,0.005,0.926,0.9095,232121,1048,953,1200,0.749,0.251,0.0099,0.1894,0.2079,0.1615,0.2931,0.1383
01003,Baldwin County,Alabama,3,Metro,30.727605,-87.72256,253507,43.7,10.1,10.6,95.7,0.1,0.023,0.583,75019,100105,0.9173,0.328,0.008,0.918,0.899,374872,1142,1098,1211,0.775,0.225,0.0174,0.1801,0.2155,0.1986,0.2381,0.1505
01005,Barbour County,Alabama,6,Nonmetro,31.869595,-85.393235,24585,40.7,10.8,14.2,108.9,0.255,0.044,0.449,44290,64745,0.7781,0.1146,0.025,0.892,0.723,149609,640,632,644,0.675,0.325,0.0416,0.2801,0.1739,0.0929,0.2956,0.1158
01007,Bibb County,Alabama,1,Metro,32.998627,-87.126467,21868,41.3,10.9,13.2,114.5,0.194,0.025,0.516,51215,67735,0.8034,0.1147,0.007,0.917,0.8136,202044,615,566,802,0.772,0.228,0.0267,0.265,0.2214,0.1503,0.2477,0.0889
01009,Blount County,Alabama,1,Metro,33.980816,-86.56748,59816,40.9,11.7,13.0,102.0,0.128,0.021,0.574,61096,79203,0.827,0.1558,0.018,0.898,0.8441,222756,741,746,743,0.795,0.205,0.0222,0.2569,0.2427,0.1353,0.231,0.1118
01011,Bullock County,Alabama,8,Nonmetro,32.100516,-85.715665,9897,40.4,10.2,13.3,120.7,0.336,0.024,0.466,36723,51121,0.7404,0.09,0.01,0.871,0.6545,124361,591,563,635,0.635,0.365,0.0246,0.3989,0.1621,0.1024,0.2226,0.0895
01013,Butler County,Alabama,6,Nonmetro,31.752436,-86.680271,18382,42.2,11.4,16.1,85.3,0.236,0.029,0.531,44881,69162,0.8759,0.1376,0.005,0.877,0.7984,111575,653,579,722,0.684,0.316,0.033,0.2476,0.1949,0.1406,0.2222,0.1616
01015,Calhoun County,Alabama,3,Metro,33.771407,-85.826032,116429,39.0,11.6,14.2,93.6,0.201,0.028,0.558,55826,71879,0.8609,0.2055,0.01,0.889,0.8534,151552,761,713,804,0.704,0.296,0.0087,0.2398,0.1949,0.1238,0.3049,0.128
01017,Chambers County,Alabama,6,Nonmetro,32.914331,-85.392022,34079,41.5,11.7,15.0,87.5,0.171,0.024,0.552,49295,65673,0.8362,0.1459,0.011,0.878,0.7911,131693,703,620,850,0.71,0.29,0.0171,0.3543,0.1454,0.1207,0.2441,0.1183
01019,Cherokee County,Alabama,8,Nonmetro,34.17591,-85.603798,25666,47.4,9.0,16.0,97.0,0.156,0.024,0.508,50769,71062,0.8387,0.1595,0.014,0.91,0.8058,211804,633,590,750,0.795,0.205,0.0204,0.2623,0.2026,0.0719,0.3211,0.1219
01021,Chilton County,Alabama,1,Metro,32.84787,-86.718768,46431,39.5,11.9,12.7,95.7,0.153,0.022,0.562,61873,75680,0.8419,0.1525,0.034,0.899,0.824,211791,766,654,855,0.768,0.232,0.0307,0.2938,0.2104,0.1132,0.2347,0.1171
01023,Choctaw County,Alabama,9,Nonmetro,32.019777,-88.263173,12252,47.0,8.8,16.2,88.3,0.248,0.04,0.464,44483,63315,0.8422,0.1391,0.0,0.918,0.7196,130811,476,465,653,0.822,0.178,0.0327,0.3309,0.2023,0.0841,0.2647,0.085
01025,Clarke County,Alabama,9,Nonmetro,31.676594,-87.830843,22337,42.5,13.0,16.3,89.8,0.19,0.05,0.501,49167,73965,0.8527,0.1543,0.001,0.918,0.7115,146448,628,589,785,0.709,0.291,0.0386,0.2332,0.2549,0.1243,0.2449,0.1042
01027,Clay County,Alabama,9,Nonmetro,33.269024,-85.860531,14111,43.8,11.2,16.3,93.0,0.169,0.024,0.494,51852,71247,0.8276,0.1524,0.003,0.916,0.7807,155991,486,473,624,0.777,0.223,0.0099,0.4271,0.1577,0.111,0.201,0.0934
01029,Cleburne County,Alabama,8,Nonmetro,33.674511,-85.518821,15639,42.3,11.4,14.8,100.7,0.158,0.023,0.492,53319,73100,0.854,0.1821,0.001,0.907,0.7516,211622,615,563,792,0.8,0.2,0.0159,0.3188,0.1918,0.1004,0.235,0.1381
01031,Coffee County,Alabama,4,Nonmetro,31.402658,-85.988174,55643,38.8,12.2,11.4,98.9,0.165,0.025,0.572,64672,81266,0.8602,0.2153,0.017,0.895,0.8702,184088,917,871,970,0.692,0.308,0.022,0.1491,0.2549,0.1414,0.2941,0.1387
01033,Colbert County,Alabama,3,Metro,34.700459,-87.805021,58361,42.3,10.9,13.8,93.0,0.154,0.029,0.576,56736,74264,0.8755,0.2027,0.009,0.926,0.7913,175224,801,769,838,0.708,0.292,0.0168,0.2602,0.1877,0.123,0.2602,0.1523
01035,Conecuh County,Alabama,9,Nonmetro,31.429214,-86.99364,11174,46.3,12.0,18.3,86.6,0.265,0.035,0.407,42266,61553,0.8749,0.1313,0.005,0.918,0.6837,127081,513,453,781,0.749,0.251,0.0431,0.3029,0.2059,0.1107,0.2162,0.1212
01037,Coosa County,Alabama,8,Nonmetro,32.93626,-86.247669,10268,50.3,8.7,16.9,105.1,0.182,0.026,0.473,57063,69698,0.8277,0.1487,0.0,0.926,0.8039,177677,589,578,682,0.813,0.187,0.0374,0.2877,0.2089,0.0852,0.2332,0.1477
01039,Covington County,Alabama,6,Nonmetro,31.248492,-86.451264,37952,42.8,11.1,17.3,93.3,0.167,0.027,0.525,50886,73109,0.8618,0.1718,0.001,0.897,0.7939,143727,603,552,736,0.757,0.243,0.0523,0.2155,0.228,0.1193,0.2811,0.1039
01041,Crenshaw County,Alabama,8,Nonmetro,31.73154,-86.313567,13101,42.4,12.0,17.2,93.9,0.195,0.027,0.521,49040,70635,0.8258,0.1681,0.016,0.908,0.6835,125982,543,494,664,0.742,0.258,0.0637,0.306,0.1892,0.1149,0.2428,0.0834
01043,Cullman County,Alabama,4,Nonmetro,34.131996,-86.867612,92016,41.1,11.1,12.5,98.0,0.155,0.02,0.581,60916,78002,0.85,0.1909,0.007,0.893,0.8575,231335,784,723,883,0.764,0.236,0.0203,0.2528,0.2154,0.1228,0.2587,0.1299
01045,Dale County,Alabama,4,Nonmetro,31.431819,-85.611049,49871,38.0,13.9,12.5,97.1,0.166,0.025,0.547,53955,69759,0.8572,0.1933,0.014,0.891,0.8459,145863,749,587,863,0.613,0.387,0.0198,0.1689,0.2577,0.1143,0.2858,0.1534
01047,Dallas County,Alabama,4,Nonmetro,32.325958,-87.106483,36165,40.3,11.7,15.7,86.5,0.314,0.054,0.525,36810,55600,0.8706,0.1701,0.003,0.907,0.7934,78391,637,531,749,0.61,0.39,0.0262,0.2551,0.1772,0.1675,0.2495,0.1245
01049,DeKalb County,Alabama,6,Nonmetro,34.459799,-85.804129,72569,39.6,11.5,13.1,100.0,0.216,0.023,0.567,51149,65789,0.7895,0.1388,0.028,0.85,0.8539,189304,612,579,683,0.768,0.232,0.0266,0.3227,0.1748,0.1202,0.2227,0.133
01051,Elmore County,Alabama,2,Metro,32.596626,-86.149136,90441,38.9,10.4,10.5,94.9,0.125,0.021,0.583,75553,96359,0.8959,0.2439,0.007,0.923,0.903,245498,996,982,1014,0.769,0.231,0.006,0.1783,0.1925,0.1596,0.3351,0.1286
01053,Escambia County,Alabama,6,Nonmetro,31.126134,-87.161582,36558,40.5,11.7,15.9,100.0,0.213,0.031,0.489,44447,60177,0.8253,0.1249,0.01,0.887,0.7544,141178,593,523,709,0.687,0.313,0.0225,0.2413,0.2033,0.0812,0.2557,0.1961
01055,Etowah County,Alabama,3,Metro,34.045277,-86.034717,103241,41.8,11.4,15.8,94.0,0.196,0.028,0.554,53070,73124,0.8578,0.1748,0.007,0.878,0.8507,157211,741,689,807,0.738,0.262,0.0096,0.2497,0.2033,0.1084,0.2853,0.1437
01057,Fayette County,Alabama,8,Nonmetro,33.721206,-87.738829,15967,42.8,11.2,17.2,94.6,0.162,0.029,0.517,50733,69566,0.8523,0.156,0.0,0.921,0.7782,133330,550,512,622,0.782,0.218,0.0162,0.3179,0.2096,0.0721,0.2735,0.1108
01059,Franklin County,Alabama,6,Nonmetro,34.441683,-87.843746,31802,38.6,13.5,14.1,97.4,0.225,0.026,0.56,51493,67215,0.7949,0.1489,0.044,0.882,0.6628,159668,600,570,667,0.718,0.282,0.0182,0.4096,0.1539,0.1297,0.2047,0.0839
01061,Geneva County,Alabama,3,Metro,31.095046,-85.839089,26988,44.0,10.9,16.8,96.2,0.192,0.024,0.546,50951,66098,0.8321,0.1332,0.009,0.872,0.7701,148256,615,557,757,0.783,0.217,0.0263,0.1972,0.2772,0.117,0.2635,0.1188
01063,Greene County,Alabama,2,Metro,32.853062,-87.952271,7341,44.4,11.4,17.0,92.6,0.31,0.048,0.402,31495,48047,0.8201,0.1248,0.007,0.862,0.6075,123746,442,461,429,0.697,0.303,0.0173,0.2817,0.1436,0.1637,0.2985,0.0951
01065,Hale County,Alabama,2,Metro,32.762722,-87.629153,14888,41.0,14.4,17.0,91.4,0.23,0.033,0.502,41325,61740,0.8189,0.1677,0.0,0.937,0.7603,160400,586,542,723,0.77,0.23,0.0407,0.1889,0.2221,0.0672,0.3585,0.1225
01067,Henry County,Alabama,3,Metro,31.514748,-85.241388,17899,45.0,9.7,14.7,95.3,0.164,0.026,0.54,60135,78795,0.8224,0.2168,0.002,0.92,0.8016,169179,711,673,770,0.809,0.191,0.0296,0.1773,0.2304,0.1181,0.3152,0.1293
01069,Houston County,Alabama,3,Metro,31.153209,-85.302536,108462,40.3,12.1,12.5,92.4,0.165,0.026,0.572,57531,80048,0.874,0.2277,0.007,0.883,0.8551,173881,883,854,905,0.639,0.361,0.0135,0.167,0.2539,0.1282,0.3001,0.1373
01071,Jackson County,Alabama,6,Nonmetro,34.779462,-85.999352,53467,43.4,10.3,15.8,97.9,0.16,0.025,0.515,49454,67768,0.8206,0.1555,0.007,0.895,0.8713,181783,639,595,762,0.75,0.25,0.0111,0.3442,0.1677,0.1238,0.2336,0.1197
01073,Jefferson County,Alabama,1,Metro,33.554321,-86.896401,662895,37.8,12.0,11.4,90.4,0.16,0.025,0.612,64589,97165,0.9099,0.3594,0.017,0.908,0.8859,203214,1122,1110,1132,0.637,0.363,0.0056,0.1443,0.201,0.2091,0.305,0.1352
01075,Lamar County,Alabama,8,Nonmetro,33.779134,-88.096957,13661,44.5,11.3,17.4,96.2,0.164,0.028,0.508,47447,60489,0.839,0.1159,0.0,0.91,0.7243,131532,513,494,548,0.74,0.26,0.0155,0.2903,0.2285,0.1302,0.2467,0.0888
01077,Lauderdale County,Alabama,3,Metro,34.901411,-87.654065,96814,40.7,9.8,12.3,92.5,0.136,0.025,0.578,59082,78675,0.893,0.2708,0.009,0.902,0.8185,202549,763,713,799,0.678,0.322,0.0075,0.2248,0.2413,0.1267,0.2657,0.134
01079,Lawrence County,Alabama,3,Metro,34.521702,-87.311033,33502,42.8,11.6,14.8,96.8,0.142,0.023,0.553,60040,76640,0.8456,0.1562,0.005,0.908,0.7466,202312,667,628,708,0.814,0.186,0.0262,0.3257,0.2308,0.1043,0.2262,0.0868
01081,Lee County,Alabama,3,Metro,32.601136,-85.355496,183215,33.6,10.4,7.2,97.5,0.179,0.023,0.6,61123,86713,0.9143,0.4133,0.025,0.913,0.8699,294280,1023,1048,999,0.657,0.343,0.0082,0.1722,0.1688,0.1744,0.3457,0.1308
01083,Limestone County,Alabama,2,Metro,34.81008,-86.981427,114654,40.5,10.7,9.2,100.5,0.086,0.021,0.597,83534,105108,0.8756,0.3039,0.018,0.919,0.893,304998,1003,1052,908,0.775,0.225,0.0154,0.2642,0.1599,0.1811,0.2567,0.1227
01085,Lowndes County,Alabama,2,Metro,32.154751,-86.650073,9717,42.7,12.3,17.3,92.2,0.294,0.046,0.487,35160,58417,0.8323,0.1387,0.0,0.915,0.6462,147565,681,686,663,0.773,0.227,0.0703,0.3357,0.1779,0.0977,0.2543,0.064
01087,Macon County,Alabama,3,Metro,32.385929,-85.692668,18370,37.8,8.8,13.1,85.0,0.288,0.032,0.517,45951,61698,0.842,0.2074,0.002,0.909,0.7624,104045,662,613,709,0.648,0.352,0.0265,0.1655,0.156,0.1455,0.326,0.1807
01089,Madison County,Alabama,2,Metro,34.763071,-86.550246,412600,38.2,11.0,8.9,96.9,0.105,0.02,0.647,83528,111962,0.9259,0.4569,0.016,0.923,0.9145,298843,1105,1097,1116,0.688,0.312,0.0053,0.1886,0.1523,0.2519,0.2834,0.1185
01091,Marengo County,Alabama,6,Nonmetro,32.247668,-87.789504,18684,41.1,11.7,16.1,90.0,0.235,0.033,0.497,44205,67077,0.8562,0.2041,0.016,0.914,0.7647,146472,631,563,722,0.69,0.31,0.0476,0.2453,0.1709,0.0835,0.3314,0.1214
01093,Marion County,Alabama,9,Nonmetro,34.13655,-87.887145,29244,43.8,10.6,15.1,97.6,0.19,0.029,0.508,50714,66253,0.8211,0.1283,0.002,0.898,0.7663,154009,545,529,583,0.752,0.248,0.0214,0.2631,0.178,0.1354,0.2925,0.1098
01095,Marshall County,Alabama,4,Nonmetro,34.366961,-86.306649,100756,38.6,15.3,12.5,98.8,0.165,0.021,0.573,60946,82099,0.8442,0.2133,0.023,0.885,0.8952,216451,780,792,765,0.755,0.245,0.0166,0.2798,0.2069,0.1356,0.2383,0.1227
01097,Mobile County,Alabama,2,Metro,30.787809,-88.205815,411640,38.4,12.3,11.6,91.8,0.163,0.031,0.581,58119,79051,0.8901,0.2515,0.01,0.891,0.8576,181381,1006,991,1021,0.649,0.351,0.0114,0.2014,0.2004,0.1695,0.2744,0.1429
01099,Monroe County,Alabama,8,Nonmetro,31.570841,-87.365462,19229,43.9,12.0,16.5,93.4,0.191,0.043,0.454,40225,57308,0.8361,0.1136,0.0,0.888,0.6919,130558,589,552,721,0.702,0.298,0.0474,0.3135,0.2154,0.096,0.2281,0.0996
01101,Montgomery County,Alabama,2,Metro,32.220241,-86.2076,224980,36.9,13.3,10.5,89.0,0.183,0.028,0.598,58153,80704,0.8884,0.3427,0.017,0.894,0.8907,146677,1032,991,1061,0.577,0.423,0.0049,0.171,0.1909,0.175,0.3314,0.1267
01103,Morgan County,Alabama,3,Metro,34.453431,-86.852932,125133,40.3,11.7,12.1,97.4,0.12,0.02,0.583,64858,86044,0.8508,0.2324,0.017,0.888,0.8324,216264,829,822,835,0.725,0.275,0.0178,0.2957,0.1967,0.1571,0.2091,0.1236
01105,Perry County,Alabama,8,Nonmetro,32.638465,-87.294414,7738,42.5,11.4,18.0,84.6,0.338,0.05,0.383,34368,42730,0.8217,0.1685,0.0,0.925,0.7158,132582,446,417,610,0.693,0.307,0.0496,0.0987,0.2268,0.0866,0.3352,0.2031
01107,Pickens County,Alabama,2,Metro,33.28078,-88.088702,18688,42.5,9.9,15.1,93.6,0.215,0.03,0.472,47014,66646,0.8388,0.1375,0.0,0.911,0.7584,136007,570,559,600,0.754,0.246,0.0259,0.3311,0.1815,0.0851,0.282,0.0945
01109,Pike County,Alabama,6,Nonmetro,31.80273,-85.940939,33137,31.7,10.9,12.0,91.2,0.238,0.027,0.559,47961,69002,0.8758,0.2732,0.008,0.918,0.8054,159371,798,744,855,0.629,0.371,0.0142,0.198,0.2378,0.1411,0.2999,0.1091
01111,Randolph County,Alabama,8,Nonmetro,33.293786,-85.459082,22786,44.0,11.0,14.9,96.1,0.159,0.024,0.523,51551,70749,0.836,0.2052,0.007,0.91,0.8091,187419,592,570,646,0.787,0.213,0.0185,0.2968,0.1983,0.1072,0.2791,0.1001
01113,Russell County,Alabama,2,Metro,32.28837,-85.184934,58744,37.2,11.7,12.1,91.0,0.189,0.028,0.558,50046,65547,0.8579,0.1685,0.011,0.885,0.7754,163801,872,805,898,0.606,0.394,0.01,0.2102,0.1982,0.1979,0.2501,0.1336
01115,St. Clair County,Alabama,1,Metro,33.715742,-86.3146,95552,41.0,10.9,12.2,97.8,0.108,0.021,0.598,78993,92258,0.8758,0.1994,0.006,0.927,0.9056,267517,1022,1004,1077,0.825,0.175,0.0047,0.2505,0.1951,0.1656,0.2609,0.1232
01117,Shelby County,Alabama,1,Metro,33.264279,-86.660672,233000,40.0,10.3,7.5,95.0,0.084,0.018,0.657,93543,123911,0.9401,0.462,0.013,0.933,0.9365,337988,1330,1321,1348,0.813,0.187,0.0082,0.1517,0.2046,0.2356,0.27,0.1299
01119,Sumter County,Alabama,8,Nonmetro,32.591028,-88.19884,11727,34.9,9.7,13.6,80.4,0.335,0.037,0.471,37981,50405,0.8795,0.1903,0.001,0.908,0.7662,110766,584,540,841,0.696,0.304,0.0148,0.1886,0.2233,0.1117,0.2995,0.1622
01121,Talladega County,Alabama,4,Nonmetro,33.380076,-86.165867,81132,42.2,10.8,14.2,94.6,0.17,0.028,0.531,56249,72746,0.8451,0.1682,0.002,0.916,0.8612,170351,754,745,772,0.726,0.274,0.0135,0.2845,0.1839,0.1117,0.2934,0.1129
01123,Tallapoosa County,Alabama,6,Nonmetro,32.862362,-85.79753,40677,45.4,9.6,15.6,94.6,0.151,0.025,0.529,57185,75764,0.8381,0.1873,0.005,0.911,0.8204,226172,685,646,734,0.756,0.244,0.0128,0.2672,0.1788,0.1409,0.2686,0.1317
01125,Tuscaloosa County,Alabama,2,Metro,33.289562,-87.525114,237373,33.0,10.6,8.5,93.5,0.192,0.023,0.616,63947,85068,0.9087,0.3138,0.011,0.933,0.8752,220178,1048,1109,997,0.622,0.378,0.0135,0.2232,0.1715,0.1297,0.334,0.1282
01127,Walker County,Alabama,1,Metro,33.803325,-87.297332,64728,41.3,12.5,17.0,96.5,0.175,0.026,0.524,54509,69909,0.8288,0.16,0.007,0.884,0.8178,178694,630,593,743,0.775,0.225,0.0378,0.2024,0.2401,0.1252,0.2493,0.1454
01129,Washington County,Alabama,8,Nonmetro,31.407603,-88.207929,15022,44.1,12.4,15.2,99.1,0.187,0.026,0.496,60503,80526,0.8869,0.162,0.001,0.923,0.7941,150282,525,529,628,0.859,0.141,0.0573,0.2731,0.2266,0.0984,0.2753,0.0692
01131,Wilcox County,Alabama,9,Nonmetro,31.989258,-87.308189,9944,42.0,11.6,16.5,91.8,0.327,0.08,0.465,42236,56527,0.7787,0.1234,0.0,0.909,0.7363,136824,552,516,699,0.779,0.221,0.0628,0.2911,0.2055,0.0491,0.2964,0.0951
01133,Winston County,Alabama,8,Nonmetro,34.149207,-87.37369,23611,45.3,10.5,16.4,99.7,0.166,0.027,0.519,48032,66939,0.7877,0.1337,0.008,0.906,0.7787,175796,636,591,744,0.766,0.234,0.0228,0.3413,0.2356,0.0934,0.222,0.0848
02013,Aleutians East Borough,Alaska,9,Nonmetro,55.367015,-161.980752,3461,41.8,4.9,2.9,161.9,0.18,0.021,0.789,72692,86888,0.8389,0.1814,0.069,0.65,0.5802,362508,806,745,1040,0.57,0.43,0.0689,0.5579,0.118,0.034,0.1911,0.0301
02016,Aleutians West Census Area,Alaska,9,Nonmetro,52.798406,-106.545398,5160,39.1,4.9,3.1,227.1,0.1,0.03,0.843,107344,122928,0.9049,0.1752,0.042,0.819,0.7748,181052,2027,2138,1886,0.295,0.705,0.0165,0.3469,0.3483,0.0488,0.1748,0.0647
02020,Anchorage Municipality,Alaska,2,Metro,61.149757,-149.108156,286075,34.9,12.5,7.6,104.4,0.089,0.034,0.698,98152,127598,0.9401,0.3768,0.03,0.9,0.944,385125,1698,1933,1453,0.637,0.363,0.0257,0.0834,0.2267,0.177,0.3461,0.1411
02050,Bethel Census Area,Alaska,7,Nonmetro,60.913174,-159.818509,18224,28.7,21.3,8.5,114.9,0.293,0.097,0.607,70616,90872,0.8193,0.1039,0.035,0.871,0.8071,367271,782,546,1454,0.605,0.395,0.0708,0.0364,0.2151,0.1096,0.482,0.0859
02060,Bristol Bay Borough,Alaska,9,Nonmetro,58.74387,-156.699959,844,39.3,12.8,8.2,156.7,0.117,0.037,0.652,100625,126030,0.9497,0.2514,0.025,0.805,0.8057,374858,1013,795,1318,0.519,0.481,0.1435,0.1346,0.2009,0.0685,0.3134,0.1391
02063,Chugach Census Area,Alaska,9,Nonmetro,60.723367,-145.771148,6769,38.4,9.1,3.5,115.0,0.087,0.047,0.697,88565,109799,0.9568,0.2958,0.01,0.86,0.9414,344129,1320,1086,1397,0.627,0.373,0.1062,0.1178,0.1918,0.1124,0.337,0.1348
02066,Copper River Census Area,Alaska,9,Nonmetro,61.883433,-143.968049,2674,45.5,12.1,6.8,102.6,0.142,0.076,0.58,75053,90710,0.9098,0.2835,0.0,0.832,0.8115,336963,730,671,973,0.677,0.323,0.017,0.1665,0.14,0.0842,0.437,0.1552
02068,Denali Borough,Alaska,9,Nonmetro,63.671369,-150.011844,1584,44.1,12.7,5.7,171.6,0.078,0.06,0.782,88935,103321,0.9339,0.2363,0.0,0.949,0.818,334379,787,749,938,0.782,0.218,0.3784,0.1569,0.1219,0.0506,0.1034,0.1889
02070,Dillingham Census Area,Alaska,9,Nonmetro,59.80029,-158.234566,4607,30.9,16.1,10.1,106.7,0.234,0.064,0.611,74250,91943,0.8736,0.1935,0.02,0.832,0.8012,372514,765,666,1085,0.631,0.369,0.088,0.041,0.1691,0.0725,0.5544,0.0752
02090,Fairbanks North Star Borough,Alaska,3,Metro,64.80775,-146.565455,94840,32.4,15.0,6.4,118.9,0.076,0.038,0.687,84722,110923,0.9488,0.3371,0.017,0.91,0.9091,288906,1467,1530,1424,0.617,0.383,0.0456,0.1005,0.2036,0.1533,0.3591,0.1379
02100,Haines Borough,Alaska,9,Nonmetro,59.120028,-135.500276,2070,52.4,11.6,8.2,102.4,0.1,0.066,0.531,72607,83299,0.9836,0.3694,0.0,0.914,0.8298,311409,907,906,914,0.764,0.236,0.0471,0.213,0.1882,0.1153,0.22,0.2164
02105,Hoonah-Angoon Census Area,Alaska,9,Nonmetro,58.28719,-135.640259,2262,51.4,7.9,12.3,133.2,0.172,0.056,0.63,62500,83266,0.9352,0.233,0.009,0.792,0.654,395928,531,458,986,0.722,0.278,0.1333,0.1181,0.2257,0.0514,0.3295,0.1419
02110,Juneau City and Borough,Alaska,5,Nonmetro,58.454613,-134.173215,31555,39.8,9.0,6.8,104.7,0.091,0.03,0.667,100513,122575,0.9465,0.4046,0.03,0.92,0.9332,465745,1585,1722,1462,0.644,0.356,0.0339,0.0979,0.1724,0.1168,0.4397,0.1392
02122,Kenai Peninsula Borough,Alaska,7,Nonmetro,60.265518,-151.565195,61223,41.5,10.4,9.0,109.3,0.115,0.047,0.563,77722,102341,0.9431,0.2939,0.007,0.883,0.8715,334398,1077,1011,1163,0.768,0.232,0.0935,0.1421,0.1649,0.1068,0.3597,0.133
02130,Ketchikan Gateway Borough,Alaska,7,Nonmetro,55.585252,-130.928093,13738,40.8,8.7,7.9,108.8,0.093,0.037,0.649,89155,112238,0.9492,0.2697,0.016,0.905,0.9006,386328,1433,1501,1388,0.673,0.327,0.05,0.1124,0.2202,0.112,0.3519,0.1536
02150,Kodiak Island Borough,Alaska,7,Nonmetro,57.679063,-153.799015,12565,35.4,12.5,7.0,118.4,0.085,0.044,0.722,83716,102245,0.9254,0.2861,0.068,0.898,0.9206,406056,1533,1459,1669,0.607,0.393,0.0579,0.1947,0.1836,0.0943,0.3624,0.1069
02158,Kusilvak Census Area,Alaska,9,Nonmetro,62.154666,-163.381192,8001,23.6,26.6,8.9,115.2,0.308,0.151,0.578,48233,63070,0.8105,0.0576,0.01,0.888,0.8065,361435,450,409,832,0.694,0.306,0.0428,0.0761,0.2491,0.0578,0.4923,0.0819
02164,Lake and Peninsula Borough,Alaska,9,Nonmetro,58.654917,-156.188918,1331,33.4,11.8,8.1,118.0,0.204,0.059,0.74,64000,74678,0.911,0.184,0.009,0.686,0.7422,375082,632,533,933,0.606,0.394,0.0632,0.2312,0.1462,0.0178,0.5059,0.0356
02170,Matanuska-Susitna Borough,Alaska,2,Metro,62.315968,-149.572911,115239,36.6,12.0,7.5,109.7,0.097,0.048,0.604,90625,111363,0.9429,0.2428,0.007,0.878,0.9246,350640,1529,1643,1258,0.766,0.234,0.0483,0.161,0.2065,0.1347,0.3291,0.1204
02180,Nome Census Area,Alaska,9,Nonmetro,64.911127,-164.027529,9763,29.4,17.3,8.6,109.6,0.207,0.077,0.642,76643,98246,0.8861,0.1745,0.012,0.85,0.8349,340481,928,748,1328,0.634,0.366,0.0291,0.0416,0.2122,0.0469,0.5782,0.092
02185,North Slope Borough,Alaska,9,Nonmetro,69.311925,-153.481407,10603,35.2,11.8,5.9,156.6,0.12,0.049,0.776,86313,110508,0.9018,0.1493,0.068,0.857,0.7075,231433,958,617,1167,0.495,0.505,0.3039,0.0998,0.1526,0.1083,0.2758,0.0596
02188,Northwest Arctic Borough,Alaska,9,Nonmetro,67.059765,-159.706239,7361,28.3,19.0,10.7,111.8,0.191,0.096,0.59,81298,100502,0.8592,0.1239,0.003,0.812,0.8839,308050,836,728,1336,0.605,0.395,0.0684,0.0784,0.1908,0.068,0.5166,0.0776
02195,Petersburg Borough,Alaska,9,Nonmetro,57.120493,-132.933929,3427,45.7,7.4,8.2,99.9,0.084,0.051,0.666,77026,98129,0.9059,0.2745,0.036,0.891,0.8681,315991,1145,1108,1208,0.71,0.29,0.1448,0.1221,0.2413,0.0861,0.2895,0.1163
02198,Prince of Wales-Hyder Census Area,Alaska,9,Nonmetro,55.801123,-133.016654,5696,43.7,12.9,13.4,123.7,0.157,0.067,0.616,59079,80149,0.9246,0.1698,0.0,0.818,0.7751,358969,656,545,915,0.716,0.284,0.1138,0.1017,0.2052,0.0657,0.428,0.0858
02220,Sitka City and Borough,Alaska,7,Nonmetro,57.24239,-135.314319,8282,39.6,9.1,8.3,108.5,0.093,0.03,0.713,101207,107564,0.9564,0.3437,0.014,0.884,0.8995,499001,1445,1587,1350,0.617,0.383,0.0763,0.1104,0.1785,0.1,0.3985,0.1362
02230,Skagway Municipality,Alaska,9,Nonmetro,59.56299,-135.336245,1095,42.5,8.2,7.3,68.6,0.059,0.058,0.77,78594,98060,0.9374,0.2775,0.029,0.911,0.8958,370466,1156,981,1228,0.656,0.344,0.0441,0.1703,0.2106,0.0971,0.2282,0.2497
02240,Southeast Fairbanks Census Area,Alaska,9,Nonmetro,63.876154,-143.212968,7077,37.9,13.9,7.7,134.2,0.122,0.052,0.582,74223,91780,0.9303,0.1958,0.01,0.834,0.7914,309348,828,684,1304,0.759,0.241,0.1347,0.179,0.1647,0.106,0.3136,0.1021
02275,Wrangell City and Borough,Alaska,9,Nonmetro,56.332388,-132.021793,2064,44.3,9.2,11.6,105.9,0.117,0.049,0.515,64545,81433,0.9023,0.1888,0.0,0.828,0.8958,280244,956,819,1047,0.566,0.434,0.0894,0.1365,0.1929,0.0683,0.3482,0.1647
02282,Yakutat City and Borough,Alaska,9,Nonmetro,59.888901,-140.357677,687,53.2,4.4,2.9,192.5,0.153,0.06,0.658,80625,92687,0.9221,0.1482,0.0,0.844,0.8213,351018,838,633,1276,0.609,0.391,0.2432,0.1199,0.2432,0.0273,0.3082,0.0582
02290,Yukon-Koyukuk Census Area,Alaska,8,Nonmetro,65.508651,-151.389619,5129,37.3,10.7,14.6,114.2,0.219,0.09,0.664,52642,65009,0.8663,0.1279,0.019,0.771,0.5365,317939,518,453,893,0.707,0.293,0.0357,0.1039,0.2434,0.0369,0.4974,0.0826
04001,Apache County,Arizona,8,Nonmetro,35.395532,-109.488821,65036,36.2,11.1,14.9,98.3,0.296,0.079,0.405,40338,57306,0.8492,0.1527,0.137,0.796,0.5364,290299,339,289,647,0.791,0.209,0.0291,0.1021,0.1758,0.0812,0.5181,0.0936
04003,Cochise County,Arizona,3,Metro,31.87957,-109.751175,124640,42.9,10.0,12.9,104.1,0.163,0.045,0.494,58970,77541,0.8922,0.2766,0.047,0.92,0.8618,243593,855,781,939,0.705,0.295,0.0316,0.1122,0.1751,0.1779,0.3663,0.137
04005,Coconino County,Arizona,3,Metro,35.838707,-111.770523,144472,32.4,9.1,7.3,97.7,0.178,0.042,0.616,69748,95848,0.9197,0.3962,0.025,0.891,0.8322,584931,1245,974,1406,0.588,0.412,0.0131,0.1424,0.1606,0.1328,0.3417,0.2093
04007,Gila County,Arizona,4,Nonmetro,33.79965,-110.811549,54003,51.4,8.4,17.3,100.0,0.177,0.043,0.466,59089,75671,0.8963,0.1885,0.009,0.9,0.808,358576,836,756,1001,0.772,0.228,0.0778,0.1186,0.1701,0.1367,0.3353,0.1614
04009,Graham County,Arizona,7,Nonmetro,32.932597,-109.887467,39525,34.4,12.6,10.4,114.3,0.173,0.037,0.508,67326,80094,0.8424,0.1459,0.008,0.912,0.8421,264205,930,965,890,0.735,0.265,0.1483,0.1207,0.1758,0.1143,0.2995,0.1413
04011,Greenlee County,Arizona,9,Nonmetro,33.215232,-109.240235,9369,36.1,12.6,10.5,109.8,0.097,0.029,0.591,75239,84558,0.8809,0.2041,0.01,0.974,0.8688,156189,524,385,570,0.558,0.442,0.3989,0.0989,0.0627,0.0764,0.2562,0.107
04012,La Paz County,Arizona,6,Nonmetro,33.729404,-113.981495,16710,59.7,9.9,22.6,106.8,0.187,0.048,0.429,49506,68092,0.8255,0.1386,0.062,0.871,0.76,274721,539,448,735,0.704,0.296,0.0767,0.1323,0.1789,0.1113,0.2974,0.2034
04013,Maricopa County,Arizona,1,Metro,33.349009,-112.491475,4585871,37.5,11.1,8.4,98.9,0.111,0.034,0.649,85518,115162,0.895,0.3586,0.032,0.893,0.922,456248,1511,1445,1587,0.65,0.35,0.0055,0.1563,0.2007,0.258,0.2465,0.133
04015,Mohave County,Arizona,3,Metro,35.704081,-113.757893,223682,53.2,7.8,18.0,102.6,0.168,0.045,0.439,55799,76121,0.8817,0.1489,0.013,0.903,0.869,349145,914,792,1047,0.736,0.264,0.0144,0.1431,0.2167,0.1604,0.2668,0.1986
04017,Navajo County,Arizona,4,Nonmetro,35.399648,-110.321408,109175,39.4,11.3,14.7,100.9,0.247,0.057,0.456,52752,67131,0.8599,0.1763,0.064,0.847,0.7237,370291,597,505,832,0.727,0.273,0.0276,0.13,0.188,0.0999,0.4206,0.1339
04019,Pima County,Arizona,1,Metro,32.097439,-111.789914,1063162,39.7,9.4,10.6,97.7,0.14,0.038,0.584,67929,92561,0.8995,0.3587,0.034,0.911,0.9105,335988,1138,1122,1154,0.648,0.352,0.0102,0.1361,0.184,0.1982,0.3188,0.1527
04021,Pinal County,Arizona,1,Metro,32.904402,-111.344762,484239,40.3,10.6,9.0,108.2,0.118,0.041,0.533,77588,97007,0.8913,0.2215,0.017,0.899,0.9183,368203,1230,1172,1417,0.805,0.195,0.023,0.1694,0.205,0.2003,0.2677,0.1345
04023,Santa Cruz County,Arizona,6,Nonmetro,31.52595,-110.846537,49158,37.9,11.3,7.8,93.3,0.201,0.076,0.567,53614,70629,0.7771,0.2407,0.245,0.855,0.846,256931,866,955,781,0.684,0.316,0.0536,0.1353,0.2854,0.1175,0.295,0.1132
04025,Yavapai County,Arizona,3,Metro,34.599804,-112.55372,249081,55.0,7.2,14.5,97.1,0.128,0.036,0.483,66106,88175,0.925,0.296,0.016,0.893,0.9079,480809,1104,998,1258,0.735,0.265,0.0216,0.1547,0.1888,0.1863,0.2805,0.1679
04027,Yuma County,Arizona,3,Metro,32.769477,-113.905635,213221,35.8,13.6,9.1,106.5,0.159,0.132,0.536,60417,77603,0.7664,0.1667,0.107,0.853,0.8669,263280,909,851,983,0.7,0.3,0.097,0.1272,0.1893,0.1441,0.2998,0.1427
05001,Arkansas County,Arkansas,6,Nonmetro,34.289166,-91.374189,16307,41.0,11.3,18.6,95.6,0.168,0.027,0.605,60831,73981,0.8748,0.1533,0.009,0.933,0.8134,114126,748,707,799,0.675,0.325,0.0884,0.3139,0.1953,0.0706,0.2527,0.0791
05003,Ashley County,Arkansas,7,Nonmetro,33.191217,-91.768476,18262,42.7,10.9,17.2,89.9,0.184,0.056,0.467,44481,60457,0.8783,0.1218,0.018,0.914,0.7977,82818,539,489,640,0.721,0.279,0.056,0.2207,0.191,0.0729,0.3408,0.1188
05005,Baxter County,Arkansas,7,Nonmetro,36.287167,-92.336959,42875,51.9,8.2,18.8,95.0,0.16,0.036,0.441,48427,68034,0.894,0.1875,0.004,0.928,0.8589,214465,725,631,866,0.75,0.25,0.0149,0.2764,0.2231,0.1138,0.2738,0.098
05007,Benton County,Arkansas,2,Metro,36.338706,-94.256142,311013,35.8,12.7,7.2,100.7,0.078,0.024,0.666,89879,121779,0.9057,0.3661,0.029,0.902,0.9311,339295,1219,1246,1193,0.672,0.328,0.0122,0.1993,0.3029,0.1646,0.1956,0.1254
05009,Boone County,Arkansas,7,Nonmetro,36.308605,-93.091537,38530,41.3,10.6,13.7,96.4,0.149,0.031,0.567,54195,70513,0.9072,0.1631,0.003,0.921,0.8801,196968,726,747,715,0.703,0.297,0.0209,0.2129,0.2352,0.1405,0.2645,0.1259
05011,Bradley County,Arkansas,7,Nonmetro,33.466405,-92.162392,10104,38.5,11.6,15.2,91.0,0.232,0.046,0.491,39565,62232,0.8726,0.1577,0.004,0.88,0.7761,101844,540,522,638,0.669,0.331,0.0598,0.2541,0.1337,0.1123,0.306,0.1342
05013,Calhoun County,Arkansas,9,Nonmetro,33.558108,-92.502922,4641,44.8,10.9,18.9,104.5,0.143,0.029,0.505,63654,73162,0.8668,0.181,0.009,0.905,0.803,127623,525,499,822,0.864,0.136,0.1161,0.2946,0.165,0.1064,0.2639,0.0538
05015,Carroll County,Arkansas,6,Nonmetro,36.341068,-93.538205,28814,44.7,11.3,12.9,102.5,0.148,0.029,0.527,55187,72185,0.84,0.2112,0.029,0.866,0.8575,235516,714,668,818,0.777,0.223,0.0771,0.3026,0.1529,0.13,0.1697,0.1677
05017,Chicot County,Arkansas,9,Nonmetro,33.266961,-91.293736,9538,42.9,9.1,17.9,103.0,0.297,0.058,0.462,39683,59697,0.8155,0.1723,0.011,0.895,0.7757,89780,571,549,661,0.674,0.326,0.0932,0.2077,0.1647,0.1622,0.2917,0.0805
05019,Clark County,Arkansas,7,Nonmetro,34.050974,-93.176376,21274,31.9,11.2,13.6,91.3,0.189,0.047,0.575,50985,67510,0.8997,0.2549,0.007,0.913,0.8073,143486,713,661,734,0.615,0.385,0.0412,0.1756,0.1885,0.1099,0.3097,0.1753
05021,Clay County,Arkansas,9,Nonmetro,36.368305,-90.417279,14201,42.6,11.0,17.0,94.8,0.175,0.041,0.571,48500,63441,0.8665,0.1562,0.0,0.911,0.7902,100082,603,564,696,0.715,0.285,0.0895,0.2222,0.1877,0.1098,0.3022,0.0887
05023,Cleburne County,Arkansas,6,Nonmetro,35.538172,-92.026696,25445,49.5,8.8,16.8,99.8,0.135,0.039,0.474,55979,74855,0.8827,0.1827,0.001,0.928,0.8298,232184,750,662,853,0.785,0.215,0.0175,0.2303,0.2327,0.1343,0.2238,0.1613
05025,Cleveland County,Arkansas,8,Nonmetro,33.898402,-92.185136,7378,43.7,11.0,17.4,90.8,0.157,0.035,0.465,50509,69803,0.9164,0.1625,0.0,0.951,0.8081,150372,593,588,635,0.792,0.208,0.0845,0.2365,0.1669,0.1175,0.3152,0.0795
05027,Columbia County,Arkansas,7,Nonmetro,33.214296,-93.227297,22150,34.5,11.5,13.4,92.6,0.233,0.043,0.534,47363,66389,0.8846,0.2038,0.012,0.934,0.7885,136133,658,671,631,0.691,0.309,0.0275,0.1685,0.1888,0.1497,0.3613,0.1042
05029,Conway County,Arkansas,6,Nonmetro,35.262399,-92.701475,21077,42.6,10.8,14.2,98.6,0.171,0.038,0.553,51212,69207,0.9013,0.1817,0.005,0.936,0.7969,153397,627,594,721,0.715,0.285,0.0732,0.1998,0.2241,0.1334,0.2704,0.099
05031,Craighead County,Arkansas,3,Metro,35.830798,-90.632827,113993,34.5,13.6,9.6,95.2,0.161,0.027,0.631,57615,82653,0.9025,0.2777,0.013,0.916,0.8756,199601,925,914,930,0.592,0.408,0.0165,0.198,0.2001,0.1402,0.325,0.1201
05033,Crawford County,Arkansas,3,Metro,35.588061,-94.242861,61891,39.1,11.8,12.7,97.3,0.133,0.034,0.555,60362,75580,0.8663,0.193,0.01,0.916,0.854,186726,795,763,828,0.742,0.258,0.0099,0.2333,0.2128,0.1398,0.2627,0.1415
05035,Crittenden County,Arkansas,1,Metro,35.205692,-90.30784,47139,36.0,12.1,13.2,89.8,0.206,0.042,0.618,54271,72770,0.8529,0.172,0.008,0.92,0.841,150237,876,863,883,0.566,0.434,0.0247,0.1495,0.2832,0.1271,0.2776,0.1379
05037,Cross County,Arkansas,6,Nonmetro,35.295717,-90.771127,16420,40.6,11.1,16.1,93.7,0.191,0.034,0.587,47012,69861,0.8341,0.1483,0.0,0.925,0.8164,135745,720,679,797,0.661,0.339,0.0696,0.1815,0.2434,0.0956,0.2902,0.1197
05039,Dallas County,Arkansas,8,Nonmetro,33.969907,-92.654313,6185,44.5,9.2,19.4,100.9,0.196,0.039,0.526,44694,60225,0.8902,0.1113,0.0,0.953,0.7204,94437,539,530,626,0.712,0.288,0.0424,0.2685,0.1267,0.1091,0.3607,0.0926
05041,Desha County,Arkansas,9,Nonmetro,33.830876,-91.255094,10479,41.2,10.6,15.4,90.7,0.25,0.046,0.483,36064,52920,0.7789,0.1303,0.021,0.915,0.7434,93490,630,572,689,0.605,0.395,0.0915,0.2262,0.1791,0.0898,0.3171,0.0965
05043,Drew County,Arkansas,7,Nonmetro,33.589435,-91.719979,16945,37.7,11.4,13.4,94.9,0.206,0.042,0.497,41071,63455,0.8714,0.2333,0.0,0.929,0.7925,151018,671,615,712,0.639,0.361,0.0559,0.1632,0.1452,0.1107,0.3883,0.1367
05045,Faulkner County,Arkansas,2,Metro,35.147006,-92.332073,129951,34.0,11.4,8.7,95.1,0.129,0.029,0.621,65071,85913,0.9368,0.332,0.009,0.925,0.9277,233832,997,1026,980,0.616,0.384,0.0076,0.1514,0.2082,0.1836,0.3215,0.1277
05047,Franklin County,Arkansas,8,Nonmetro,35.512357,-93.890587,17468,42.4,10.8,14.9,98.9,0.19,0.032,0.522,51919,65796,0.8707,0.1316,0.002,0.917,0.7646,156355,653,589,717,0.74,0.26,0.0533,0.3126,0.1816,0.0908,0.265,0.097
05049,Fulton County,Arkansas,9,Nonmetro,36.381651,-91.818152,12421,48.6,9.4,19.0,96.4,0.175,0.038,0.438,38941,54372,0.8773,0.1572,0.002,0.886,0.6961,175297,578,565,596,0.847,0.153,0.0308,0.1469,0.2682,0.058,0.3613,0.1349
05051,Garland County,Arkansas,3,Metro,34.576716,-93.150405,99784,45.3,9.7,15.4,93.6,0.189,0.037,0.546,55409,74518,0.9089,0.2625,0.012,0.905,0.8321,232108,841,755,942,0.692,0.308,0.0172,0.1393,0.2116,0.1476,0.2714,0.213
05053,Grant County,Arkansas,2,Metro,34.290048,-92.423682,18383,40.2,10.1,14.1,101.4,0.111,0.029,0.577,72512,91164,0.9111,0.2093,0.002,0.933,0.8581,194262,699,661,779,0.795,0.205,0.0402,0.2508,0.188,0.1166,0.3057,0.0984
05055,Greene County,Arkansas,4,Nonmetro,36.117659,-90.559024,46743,37.8,11.3,12.1,98.3,0.162,0.033,0.591,56793,69475,0.874,0.1649,0.001,0.91,0.8552,175172,838,818,852,0.651,0.349,0.0335,0.2771,0.1976,0.1176,0.2916,0.0826
05057,Hempstead County,Arkansas,6,Nonmetro,33.735309,-93.668477,19343,41.1,11.0,14.5,91.5,0.166,0.034,0.518,47654,66635,0.8343,0.146,0.009,0.899,0.7628,113006,618,534,781,0.696,0.304,0.0984,0.2775,0.1445,0.0907,0.301,0.088
05059,Hot Spring County,Arkansas,6,Nonmetro,34.317648,-92.946136,33258,43.0,9.2,14.3,109.6,0.169,0.035,0.497,52644,67204,0.894,0.1578,0.001,0.92,0.7777,153169,705,666,763,0.774,0.226,0.0235,0.1798,0.2303,0.118,0.2993,0.1491
05061,Howard County,Arkansas,8,Nonmetro,34.088954,-93.993564,12533,39.4,11.1,13.9,91.8,0.178,0.035,0.571,44492,62736,0.8938,0.1668,0.014,0.883,0.7707,147157,619,557,702,0.712,0.288,0.0892,0.363,0.1143,0.0813,0.2585,0.0938
05063,Independence County,Arkansas,7,Nonmetro,35.741561,-91.569755,38320,39.0,12.4,12.7,99.9,0.135,0.034,0.579,56009,77283,0.8749,0.1687,0.005,0.897,0.7475,160486,756,704,814,0.676,0.324,0.0273,0.2724,0.1884,0.0847,0.2775,0.1497
05065,Izard County,Arkansas,9,Nonmetro,36.094853,-91.913401,14169,47.5,8.0,16.9,111.5,0.203,0.051,0.399,47728,61320,0.8477,0.1871,0.0,0.934,0.7175,155630,588,568,626,0.747,0.253,0.0467,0.242,0.1361,0.1284,0.3467,0.1001
05067,Jackson County,Arkansas,6,Nonmetro,35.599285,-91.214521,16784,40.4,9.4,15.1,101.0,0.246,0.051,0.467,41215,60764,0.8377,0.1326,0.0,0.911,0.7754,87500,585,548,662,0.653,0.347,0.0813,0.2281,0.2226,0.0503,0.2846,0.1331
05069,Jefferson County,Arkansas,4,Nonmetro,34.268306,-91.930462,63661,39.5,11.3,14.3,99.4,0.243,0.046,0.514,48552,66118,0.8857,0.2064,0.004,0.945,0.7861,86508,769,683,849,0.632,0.368,0.0144,0.202,0.1832,0.1104,0.3508,0.1393
05071,Johnson County,Arkansas,7,Nonmetro,35.569714,-93.460178,26129,39.4,11.4,12.8,98.2,0.171,0.044,0.534,44808,61307,0.839,0.1808,0.027,0.922,0.7081,166338,658,609,714,0.717,0.283,0.0358,0.289,0.216,0.0875,0.2394,0.1322
05073,Lafayette County,Arkansas,8,Nonmetro,33.241592,-93.60699,6095,48.5,6.9,17.3,106.1,0.228,0.049,0.44,37237,51942,0.8162,0.0921,0.002,0.914,0.6821,96065,530,503,711,0.772,0.228,0.1383,0.1935,0.2138,0.075,0.3247,0.0547
05075,Lawrence County,Arkansas,6,Nonmetro,36.041197,-91.106995,16318,39.8,11.8,14.7,97.5,0.183,0.034,0.534,44164,63906,0.8238,0.1404,0.001,0.907,0.8229,116787,612,546,715,0.682,0.318,0.054,0.2619,0.1771,0.0794,0.2919,0.1356
05077,Lee County,Arkansas,8,Nonmetro,34.780528,-90.780803,8201,41.9,9.9,16.8,127.0,0.387,0.052,0.396,36860,60647,0.8258,0.0687,0.0,0.935,0.8084,100443,581,511,638,0.612,0.388,0.157,0.1071,0.1934,0.1084,0.2953,0.1387
05079,Lincoln County,Arkansas,9,Nonmetro,33.956988,-91.734414,12898,40.1,7.7,13.2,171.7,0.262,0.04,0.344,51667,67605,0.8326,0.1088,0.005,0.921,0.6305,115741,628,611,672,0.784,0.216,0.071,0.2258,0.1436,0.0932,0.3529,0.1135
05081,Little River County,Arkansas,3,Metro,33.700937,-94.235291,11805,42.2,8.0,16.4,88.1,0.177,0.035,0.578,52241,69554,0.9101,0.1744,0.006,0.944,0.7889,135122,601,571,812,0.8,0.2,0.027,0.2744,0.1604,0.0861,0.3135,0.1385
05083,Logan County,Arkansas,8,Nonmetro,35.214927,-93.716607,21400,43.8,12.2,17.0,97.2,0.166,0.04,0.559,54237,72784,0.8929,0.1555,0.006,0.923,0.7904,149357,664,580,721,0.767,0.233,0.0629,0.2598,0.1776,0.1107,0.2862,0.1028
05085,Lonoke County,Arkansas,2,Metro,34.75423,-91.888776,75944,37.3,11.7,10.4,97.7,0.096,0.027,0.63,71449,88961,0.9021,0.2099,0.007,0.933,0.885,211424,1005,1042,961,0.744,0.256,0.0286,0.1558,0.2543,0.1539,0.3012,0.1063
05087,Madison County,Arkansas,2,Metro,36.011048,-93.724581,17775,41.2,12.3,14.1,100.1,0.148,0.026,0.589,53888,73885,0.8577,0.1284,0.011,0.875,0.8884,228411,571,532,727,0.79,0.21,0.0562,0.2731,0.2137,0.1122,0.2106,0.1343
05089,Marion County,Arkansas,9,Nonmetro,36.268472,-92.684286,17514,51.9,7.9,17.3,98.6,0.174,0.041,0.451,46953,61967,0.8631,0.1544,0.004,0.928,0.8817,205617,594,529,792,0.835,0.165,0.0133,0.3444,0.155,0.1461,0.2615,0.0798
05091,Miller County,Arkansas,3,Metro,33.312335,-93.892094,42415,39.0,8.4,13.5,99.5,0.215,0.036,0.528,49983,68756,0.8692,0.1605,0.003,0.887,0.8225,161105,767,644,882,0.653,0.347,0.0078,0.2208,0.2231,0.0974,0.3205,0.1304
05093,Mississippi County,Arkansas,4,Nonmetro,35.762407,-90.052163,38663,36.9,13.6,14.7,96.9,0.249,0.049,0.611,53428,76088,0.8561,0.1418,0.008,0.905,0.8274,84576,770,704,797,0.594,0.406,0.044,0.3241,0.1787,0.0913,0.2336,0.1282
05095,Monroe County,Arkansas,9,Nonmetro,34.677846,-91.203902,6512,45.5,13.1,20.5,93.1,0.263,0.039,0.516,43955,57347,0.8343,0.1564,0.001,0.93,0.7588,84911,534,493,603,0.657,0.343,0.0851,0.2013,0.2238,0.1109,0.2909,0.088
05097,Montgomery County,Arkansas,8,Nonmetro,34.538897,-93.659561,8620,50.8,9.3,18.9,105.3,0.188,0.049,0.467,49015,65505,0.8758,0.1685,0.007,0.888,0.7692,174730,557,492,734,0.789,0.211,0.0672,0.1823,0.2569,0.0975,0.2882,0.1081
05099,Nevada County,Arkansas,9,Nonmetro,33.66402,-93.307178,8120,44.2,9.2,14.8,95.6,0.232,0.037,0.507,41761,52418,0.9011,0.1167,0.0,0.938,0.6864,115638,672,554,841,0.659,0.341,0.0311,0.2198,0.1298,0.0944,0.2964,0.2286
05101,Newton County,Arkansas,9,Nonmetro,35.919979,-93.217869,7071,48.9,9.5,17.4,102.7,0.188,0.034,0.505,47395,64637,0.8544,0.1425,0.002,0.939,0.8022,196826,591,570,629,0.724,0.276,0.0329,0.3055,0.2566,0.0992,0.1914,0.1144
05103,Ouachita County,Arkansas,7,Nonmetro,33.593339,-92.881863,21793,44.0,11.3,16.9,93.1,0.188,0.039,0.499,49838,63323,0.8888,0.1509,0.0,0.942,0.8026,91809,628,589,714,0.712,0.288,0.0215,0.306,0.186,0.0883,0.3034,0.0947
05105,Perry County,Arkansas,2,Metro,34.947503,-92.931266,10184,44.1,9.8,14.9,103.4,0.141,0.036,0.5,60078,75452,0.917,0.1713,0.0,0.947,0.8122,144037,568,497,734,0.774,0.226,0.0486,0.2947,0.2012,0.117,0.2518,0.0867
05107,Phillips County,Arkansas,7,Nonmetro,34.427435,-90.848868,14961,39.9,13.7,18.3,87.4,0.342,0.065,0.51,38874,54537,0.8264,0.1453,0.006,0.916,0.792,53713,632,550,756,0.54,0.46,0.0499,0.2224,0.2369,0.1055,0.2629,0.1223
05109,Pike County,Arkansas,9,Nonmetro,34.163463,-93.656425,10208,42.8,11.1,16.7,96.9,0.182,0.035,0.519,51000,70571,0.8711,0.1956,0.006,0.885,0.7786,167827,559,536,671,0.759,0.241,0.0469,0.2425,0.1596,0.0892,0.2989,0.1629
05111,Poinsett County,Arkansas,3,Metro,35.574017,-90.662992,22397,39.8,13.0,17.7,94.7,0.191,0.033,0.555,47188,62397,0.8234,0.1192,0.004,0.901,0.7981,110875,608,595,647,0.637,0.363,0.0491,0.2363,0.2351,0.1021,0.2681,0.1093
05113,Polk County,Arkansas,7,Nonmetro,34.485844,-94.228207,19436,44.4,10.4,16.3,95.8,0.188,0.036,0.557,49252,75460,0.8738,0.172,0.01,0.903,0.7987,165801,582,520,699,0.822,0.178,0.0666,0.2047,0.2097,0.1065,0.2796,0.1328
05115,Pope County,Arkansas,5,Nonmetro,35.447918,-93.034553,64593,36.7,11.3,10.6,98.3,0.135,0.039,0.571,54606,77373,0.8598,0.2464,0.02,0.925,0.8336,187286,798,745,855,0.712,0.288,0.0222,0.2488,0.2365,0.0981,0.2723,0.1221
05117,Prairie County,Arkansas,8,Nonmetro,34.829735,-91.552827,8036,45.8,9.8,17.7,101.8,0.154,0.031,0.546,51094,75028,0.8592,0.1671,0.0,0.94,0.7265,128634,639,636,637,0.761,0.239,0.0704,0.1959,0.2444,0.1521,0.2643,0.073
05119,Pulaski County,Arkansas,2,Metro,34.770012,-92.311948,400009,37.5,12.5,10.2,91.8,0.157,0.032,0.626,60385,91685,0.9196,0.3736,0.018,0.904,0.8765,190491,1046,1060,1036,0.577,0.423,0.0041,0.1311,0.1988,0.2036,0.3389,0.1237
05121,Randolph County,Arkansas,7,Nonmetro,36.341458,-91.027647,18907,39.3,13.0,14.0,100.8,0.185,0.035,0.531,52838,68091,0.8605,0.1448,0.003,0.929,0.7719,134767,552,533,671,0.732,0.268,0.054,0.2652,0.2497,0.1027,0.2389,0.0896
05123,St. Francis County,Arkansas,6,Nonmetro,35.022035,-90.747801,22101,39.7,12.1,14.8,124.7,0.343,0.05,0.468,41784,59402,0.8568,0.129,0.012,0.921,0.8117,76998,729,617,791,0.552,0.448,0.0473,0.1861,0.2535,0.0679,0.327,0.1181
05125,Saline County,Arkansas,2,Metro,34.646628,-92.676577,129574,40.4,11.0,10.8,96.0,0.093,0.027,0.628,76534,94089,0.9265,0.285,0.021,0.94,0.8797,237389,1005,1024,980,0.764,0.236,0.0113,0.1558,0.2194,0.1865,0.3278,0.0992
05127,Scott County,Arkansas,8,Nonmetro,34.860719,-94.063235,9851,42.4,12.4,18.1,111.7,0.195,0.03,0.515,45955,57192,0.8458,0.1083,0.01,0.902,0.7502,145675,579,494,736,0.739,0.261,0.0615,0.291,0.1777,0.1262,0.2675,0.0761
05129,Searcy County,Arkansas,9,Nonmetro,35.910975,-92.699542,7806,48.5,9.4,19.6,100.5,0.202,0.043,0.471,41978,53052,0.8004,0.1369,0.0,0.942,0.7562,161070,460,453,596,0.751,0.249,0.0694,0.2214,0.228,0.0939,0.3036,0.0837
05131,Sebastian County,Arkansas,3,Metro,35.198876,-94.274331,129098,38.0,12.4,11.7,96.7,0.128,0.034,0.609,56450,85707,0.8518,0.2438,0.033,0.895,0.8385,179172,842,831,854,0.612,0.388,0.0129,0.2374,0.1956,0.1648,0.2527,0.1365
05133,Sevier County,Arkansas,6,Nonmetro,33.997234,-94.241143,15632,34.8,11.5,12.8,101.1,0.187,0.038,0.589,51641,67677,0.7254,0.1093,0.051,0.811,0.7871,147506,634,536,725,0.653,0.347,0.0757,0.3404,0.1566,0.0996,0.2069,0.1208
05135,Sharp County,Arkansas,9,Nonmetro,36.161189,-91.479783,17968,47.5,10.1,16.9,96.5,0.197,0.039,0.452,42950,66305,0.8536,0.1193,0.002,0.94,0.7549,146779,602,581,648,0.796,0.204,0.023,0.232,0.1882,0.0875,0.332,0.1374
05137,Stone County,Arkansas,9,Nonmetro,35.859876,-92.156794,12671,49.2,10.0,17.4,97.7,0.177,0.041,0.416,38531,53444,0.8601,0.1538,0.002,0.909,0.713,179027,525,508,717,0.756,0.244,0.0799,0.2644,0.1363,0.0922,0.2688,0.1584
05139,Union County,Arkansas,7,Nonmetro,33.171299,-92.597254,37397,41.5,12.3,15.2,95.5,0.19,0.046,0.558,50221,74494,0.8796,0.1892,0.002,0.942,0.8167,125983,762,679,825,0.729,0.271,0.0305,0.2618,0.192,0.149,0.2663,0.1004
05141,Van Buren County,Arkansas,8,Nonmetro,35.580621,-92.515752,16142,49.6,8.7,18.5,100.8,0.165,0.04,0.438,47266,60906,0.8643,0.1578,0.007,0.901,0.8024,156632,613,577,727,0.78,0.22,0.0435,0.1887,0.2538,0.146,0.251,0.117
05143,Washington County,Arkansas,2,Metro,35.979053,-94.215607,261549,32.5,12.7,7.2,101.1,0.135,0.023,0.651,66426,95012,0.8726,0.3461,0.038,0.877,0.8912,310526,1067,1147,1005,0.556,0.444,0.0127,0.1988,0.2092,0.1578,0.2726,0.1488
05145,White County,Arkansas,4,Nonmetro,35.256234,-91.745528,78452,38.4,11.6,12.7,95.6,0.157,0.035,0.556,53435,73577,0.8675,0.198,0.002,0.903,0.8573,184094,793,767,806,0.682,0.318,0.0136,0.2109,0.2231,0.1112,0.2904,0.151
05147,Woodruff County,Arkansas,9,Nonmetro,35.186329,-91.243008,5964,44.9,11.6,17.0,104.7,0.244,0.036,0.559,49982,64984,0.8292,0.1589,0.0,0.92,0.6248,76136,526,487,595,0.657,0.343,0.0874,0.1544,0.2441,0.1261,0.2901,0.0978
05149,Yell County,Arkansas,9,Nonmetro,35.002588,-93.410843,20044,39.9,12.7,13.8,102.9,0.165,0.037,0.57,58870,66744,0.815,0.1432,0.041,0.917,0.7811,156282,616,595,653,0.675,0.325,0.0672,0.3413,0.1619,0.0982,0.2239,0.1075
06001,Alameda County,California,1,Metro,37.646838,-121.888741,1622188,38.7,10.1,6.5,98.4,0.095,0.041,0.67,126240,171948,0.889,0.5147,0.083,0.959,0.9359,1047083,2532,2899,2318,0.541,0.459,0.0034,0.1553,0.162,0.3055,0.2556,0.1182
06003,Alpine County,California,8,Nonmetro,38.59722,-119.820693,1141,41.1,6.0,18.9,109.3,0.156,0.065,0.59,110781,162949,0.9626,0.4211,0.0,0.95,0.9112,499118,1734,1753,1795,0.81,0.19,0.0695,0.0823,0.188,0.1506,0.287,0.2226
06005,Amador County,California,6,Nonmetro,38.446398,-120.651024,41811,49.9,7.9,13.3,120.3,0.117,0.051,0.481,81526,104990,0.9097,0.2244,0.018,0.941,0.8848,419908,1464,1515,1380,0.801,0.199,0.0312,0.1583,0.1783,0.1823,0.2491,0.2008
06007,Butte County,California,3,Metro,39.666924,-121.600719,207172,36.3,9.4,11.5,99.0,0.199,0.052,0.591,68574,96124,0.9033,0.3172,0.024,0.936,0.9091,392660,1382,1401,1369,0.583,0.417,0.035,0.125,0.1782,0.1751,0.3195,0.1673
06009,Calaveras County,California,6,Nonmetro,38.204599,-120.554173,46565,52.0,8.1,12.8,98.8,0.122,0.042,0.484,79877,103128,0.9335,0.2219,0.003,0.947,0.8584,433530,1595,1590,1615,0.844,0.156,0.0348,0.1906,0.2088,0.1799,0.2715,0.1142
06011,Colusa County,California,6,Nonmetro,39.177492,-122.236903,22037,35.7,12.9,8.6,106.7,0.123,0.13,0.626,75149,93585,0.7319,0.1452,0.089,0.91,0.833,348367,1178,1276,1139,0.622,0.378,0.1929,0.2008,0.1787,0.0696,0.2409,0.1171
06013,Contra Costa County,California,1,Metro,37.919147,-121.92753,1155025,40.3,10.0,7.4,96.8,0.083,0.041,0.651,125727,172107,0.8961,0.4491,0.061,0.952,0.9543,786567,2493,2675,2322,0.677,0.323,0.0062,0.1406,0.1779,0.2769,0.2708,0.1277
06015,Del Norte County,California,7,Nonmetro,41.743122,-123.897236,26589,40.8,8.8,13.4,119.4,0.138,0.057,0.5,66780,86246,0.8554,0.2097,0.015,0.941,0.9025,350231,1034,889,1182,0.712,0.288,0.0514,0.1227,0.1602,0.094,0.4358,0.136
06017,El Dorado County,California,1,Metro,38.778698,-120.524654,192215,46.1,7.8,9.1,100.0,0.07,0.04,0.581,106190,145804,0.9492,0.3882,0.015,0.96,0.9243,634712,1985,2190,1626,0.764,0.236,0.0155,0.1487,0.1568,0.2239,0.2841,0.1711
06019,Fresno County,California,1,Metro,36.75823,-119.649266,1017162,33.2,13.7,8.2,100.5,0.177,0.075,0.613,71434,97005,0.786,0.2385,0.093,0.93,0.8733,376257,1399,1548,1300,0.554,0.446,0.0784,0.1267,0.1967,0.1482,0.3206,0.1295
06021,Glenn County,California,6,Nonmetro,39.598143,-122.391979,28129,35.9,12.5,11.6,105.2,0.135,0.063,0.632,70487,86148,0.8032,0.1648,0.071,0.911,0.9054,337149,1191,1288,1103,0.631,0.369,0.1397,0.179,0.1934,0.0813,0.2676,0.139
06023,Humboldt County,California,5,Nonmetro,40.699303,-123.875607,133985,39.6,9.1,11.6,97.9,0.167,0.046,0.583,61135,86742,0.9152,0.3209,0.015,0.942,0.9063,455116,1260,1277,1249,0.563,0.437,0.0455,0.129,0.1709,0.1521,0.3369,0.1655
06025,Imperial County,California,3,Metro,33.039494,-115.365348,179057,33.0,13.5,7.8,105.6,0.173,0.173,0.527,56393,77390,0.7185,0.161,0.238,0.932,0.8836,322317,1100,1224,1012,0.568,0.432,0.0984,0.0971,0.2086,0.1147,0.3446,0.1367
06027,Inyo County,California,6,Nonmetro,36.511116,-117.410694,18527,45.6,8.6,11.9,103.5,0.118,0.038,0.569,72432,93044,0.928,0.3182,0.009,0.929,0.8273,480869,1072,1013,1140,0.671,0.329,0.0312,0.0937,0.1522,0.1411,0.4099,0.1718
06029,Kern County,California,2,Metro,35.342647,-118.730067,913820,32.4,13.2,8.3,103.9,0.19,0.083,0.588,67660,91401,0.7713,0.1857,0.085,0.922,0.8991,330095,1330,1453,1220,0.598,0.402,0.1293,0.1324,0.2025,0.1238,0.2846,0.1274
06031,Kings County,California,3,Metro,36.075251,-119.815451,152682,32.3,13.6,7.3,123.3,0.175,0.082,0.558,68750,86268,0.7424,0.1392,0.114,0.921,0.8787,326257,1330,1460,1228,0.548,0.452,0.1553,0.1306,0.1892,0.0958,0.3048,0.1241
06033,Lake County,California,4,Nonmetro,39.100049,-122.753346,67878,44.2,10.0,14.3,100.8,0.176,0.058,0.513,58738,86272,0.8708,0.1774,0.021,0.936,0.8554,316898,1220,1183,1292,0.709,0.291,0.0471,0.1597,0.1964,0.1348,0.3328,0.1293
06035,Lassen County,California,7,Nonmetro,40.673596,-120.594322,28861,37.8,9.0,9.7,164.1,0.171,0.052,0.396,64395,81066,0.7914,0.1321,0.023,0.933,0.8766,227926,1092,1138,1043,0.682,0.318,0.0421,0.1105,0.1781,0.0806,0.4617,0.127
06037,Los Angeles County,California,1,Metro,34.321916,-118.224675,9663345,37.9,9.8,7.5,98.2,0.137,0.05,0.648,87760,125539,0.8066,0.3547,0.121,0.913,0.9179,812802,2032,2390,1893,0.461,0.539,0.0046,0.1482,0.1935,0.2404,0.2538,0.1596
06039,Madera County,California,1,Metro,37.218052,-119.762592,162858,34.6,12.9,8.8,96.4,0.18,0.075,0.563,75496,99476,0.7305,0.1713,0.095,0.925,0.9026,387765,1425,1530,1307,0.655,0.345,0.1323,0.1666,0.1876,0.1259,0.2691,0.1185
06041,Marin County,California,1,Metro,38.073464,-122.723567,254407,47.3,8.8,8.2,96.5,0.087,0.033,0.627,142785,224140,0.9273,0.6046,0.043,0.962,0.9515,1390534,3046,3583,2584,0.639,0.361,0.0084,0.1133,0.1474,0.3503,0.2431,0.1377
06043,Mariposa County,California,8,Nonmetro,37.5815,-119.905411,16919,51.6,8.5,13.2,106.2,0.173,0.051,0.546,65378,86394,0.9047,0.3086,0.014,0.935,0.8535,390085,1311,1326,1268,0.747,0.253,0.0563,0.1206,0.1147,0.1107,0.3495,0.2483
06045,Mendocino County,California,4,Nonmetro,39.440262,-123.391457,89108,43.9,9.6,11.3,98.4,0.139,0.047,0.564,64688,91472,0.8616,0.2492,0.021,0.918,0.873,526583,1315,1304,1325,0.609,0.391,0.0549,0.148,0.1938,0.1465,0.2975,0.1593
06047,Merced County,California,2,Metro,37.191882,-120.717662,291920,31.8,13.0,7.5,103.0,0.186,0.09,0.589,65044,87129,0.7189,0.1478,0.125,0.91,0.8817,390361,1328,1392,1284,0.533,0.467,0.1054,0.1903,0.2148,0.1056,0.2603,0.1236
06049,Modoc County,California,8,Nonmetro,41.589821,-120.725011,8500,49.0,4.0,13.4,96.5,0.201,0.063,0.462,56648,74476,0.8795,0.23,0.033,0.902,0.8309,179228,696,659,818,0.773,0.227,0.1517,0.0577,0.1746,0.1805,0.3338,0.1017
06051,Mono County,California,7,Nonmetro,37.939098,-118.886826,13066,40.3,8.7,4.7,126.7,0.078,0.038,0.708,86953,115814,0.8955,0.3432,0.033,0.884,0.9109,713599,1893,2141,1593,0.692,0.308,0.0368,0.1399,0.1034,0.1614,0.2434,0.3151
06053,Monterey County,California,2,Metro,36.21707,-121.238759,430723,35.3,12.8,6.6,103.5,0.14,0.07,0.605,94486,128334,0.7333,0.2788,0.103,0.901,0.9317,785796,2028,2087,1995,0.523,0.477,0.1445,0.1255,0.1562,0.1531,0.2673,0.1535
06055,Napa County,California,3,Metro,38.506921,-122.330569,133216,42.8,8.7,9.4,100.2,0.089,0.035,0.635,108970,154011,0.8471,0.3852,0.052,0.943,0.9314,875895,2198,2258,2141,0.644,0.356,0.0521,0.1843,0.1676,0.1703,0.2666,0.1591
06057,Nevada County,California,4,Nonmetro,39.301291,-120.768912,102037,50.3,7.2,10.9,97.6,0.109,0.039,0.533,84905,117745,0.9507,0.3946,0.009,0.948,0.92,607557,1863,2001,1635,0.744,0.256,0.0206,0.1484,0.1713,0.2169,0.2694,0.1732
06059,Orange County,California,1,Metro,33.703059,-117.760929,3135755,39.1,9.8,7.2,98.3,0.092,0.036,0.656,113702,152475,0.8694,0.434,0.079,0.932,0.9449,1001799,2419,2556,2352,0.564,0.436,0.0067,0.1779,0.1735,0.2517,0.2416,0.1485
06061,Placer County,California,1,Metro,39.063384,-120.717661,423561,42.4,8.6,9.0,96.8,0.065,0.037,0.613,114678,147894,0.9492,0.4289,0.021,0.966,0.937,658664,2193,2326,1991,0.743,0.257,0.0062,0.1346,0.1712,0.2406,0.3153,0.1321
06063,Plumas County,California,9,Nonmetro,40.004638,-120.838516,19131,52.1,7.5,11.2,104.1,0.127,0.073,0.475,64946,93296,0.9398,0.2046,0.01,0.95,0.836,374174,1126,1172,1034,0.748,0.252,0.0776,0.1846,0.1738,0.0962,0.342,0.1258
06065,Riverside County,California,1,Metro,33.743652,-115.993808,2492442,36.7,11.1,8.3,100.6,0.113,0.048,0.609,89672,115609,0.833,0.2508,0.064,0.92,0.9279,573350,1903,1972,1814,0.689,0.311,0.013,0.1743,0.2239,0.1686,0.2632,0.1572
06067,Sacramento County,California,1,Metro,38.449284,-121.344247,1584288,37.2,11.2,8.3,97.0,0.119,0.044,0.636,88724,114458,0.8837,0.3328,0.062,0.949,0.9344,508870,1764,1869,1702,0.586,0.414,0.0083,0.1287,0.1949,0.2002,0.3289,0.139
06069,San Benito County,California,1,Metro,36.605691,-121.074956,68175,35.9,12.5,6.8,101.6,0.091,0.06,0.668,108289,138189,0.8324,0.2239,0.081,0.937,0.9438,756750,2359,2738,1922,0.674,0.326,0.0693,0.2153,0.1948,0.1576,0.2365,0.1263
06071,San Bernardino County,California,1,Metro,34.841383,-116.178456,2195611,34.4,11.9,8.0,100.3,0.132,0.047,0.622,82184,105546,0.8209,0.229,0.063,0.915,0.9223,511475,1745,1791,1706,0.615,0.385,0.0072,0.1572,0.2727,0.1495,0.2736,0.1396
06073,San Diego County,California,1,Metro,33.034259,-116.735052,3269973,37.1,11.3,7.4,102.3,0.101,0.039,0.663,102285,136236,0.8902,0.4209,0.059,0.932,0.9434,855024,2275,2484,2154,0.545,0.455,0.007,0.164,0.1643,0.2458,0.2686,0.1502
06075,San Francisco County,California,1,Metro,37.755507,-122.444875,808988,39.7,9.0,7.7,105.7,0.119,0.033,0.701,141446,204625,0.888,0.6012,0.108,0.965,0.9243,1241489,2620,3200,2419,0.385,0.615,0.0023,0.0834,0.1425,0.4157,0.2325,0.1236
06077,San Joaquin County,California,2,Metro,37.93474,-121.271445,800965,35.2,12.0,7.9,100.4,0.126,0.062,0.618,88531,114559,0.8043,0.2157,0.081,0.936,0.9141,518263,1754,1891,1633,0.615,0.385,0.0438,0.1827,0.2326,0.1621,0.2568,0.1221
06079,San Luis Obispo County,California,2,Metro,35.387109,-120.404319,281639,40.2,8.5,9.1,101.9,0.128,0.035,0.587,93398,126122,0.9177,0.392,0.022,0.942,0.9255,839420,1963,2048,1899,0.619,0.381,0.0335,0.1555,0.1711,0.1815,0.2825,0.176
06081,San Mateo County,California,1,Metro,37.422778,-122.329075,726353,40.6,10.2,6.7,99.3,0.073,0.03,0.673,156000,226660,0.903,0.5307,0.079,0.961,0.9535,1485633,3049,3278,2893,0.591,0.409,0.0066,0.1308,0.1608,0.3311,0.2454,0.1251
06083,Santa Barbara County,California,2,Metro,34.672992,-120.016862,441257,34.5,12.6,7.7,100.6,0.149,0.041,0.627,95977,137063,0.8214,0.3587,0.064,0.908,0.9228,897339,2067,2094,2050,0.529,0.471,0.0809,0.1399,0.152,0.1944,0.2737,0.1591
06085,Santa Clara County,California,1,Metro,37.23178,-121.695121,1877592,37.9,10.0,5.7,103.9,0.076,0.035,0.674,159674,219664,0.8933,0.5587,0.104,0.96,0.9524,1417979,2958,3233,2814,0.553,0.447,0.0045,0.215,0.1276,0.332,0.2144,0.1063
06087,Santa Cruz County,California,2,Metro,37.056245,-122.00181,261547,39.6,8.6,7.2,99.6,0.126,0.057,0.635,109266,153085,0.8849,0.4356,0.044,0.947,0.9374,1110972,2277,2413,2172,0.6,0.4,0.0462,0.15,0.1603,0.2045,0.2898,0.1491
06089,Shasta County,California,3,Metro,40.763776,-122.040495,180366,41.7,9.6,14.1,97.5,0.132,0.051,0.56,71931,96355,0.9207,0.2327,0.011,0.933,0.898,359320,1333,1399,1267,0.654,0.346,0.0216,0.1325,0.201,0.1649,0.3184,0.1618
06091,Sierra County,California,8,Nonmetro,39.580342,-120.516087,3200,56.0,7.2,10.6,97.9,0.126,0.047,0.504,60000,89329,0.9139,0.244,0.0,0.876,0.7405,317596,1338,1373,1181,0.783,0.217,0.1804,0.2502,0.0906,0.0755,0.2144,0.1889
06093,Siskiyou County,California,7,Nonmetro,41.592698,-122.540363,42905,47.4,7.5,14.9,99.8,0.171,0.064,0.504,55499,76699,0.9107,0.2308,0.011,0.936,0.869,282563,942,866,1043,0.697,0.303,0.075,0.1373,0.1831,0.1148,0.3597,0.13
06095,Solano County,California,2,Metro,38.269997,-121.93287,449218,39.1,10.7,8.5,99.4,0.103,0.047,0.624,99994,124288,0.8892,0.2837,0.053,0.951,0.9334,569938,2145,2202,2088,0.632,0.368,0.0112,0.169,0.2042,0.1815,0.3001,0.134
06097,Sonoma County,California,2,Metro,38.52901,-122.888189,481812,42.7,9.3,9.1,96.8,0.091,0.036,0.645,102840,138572,0.8886,0.3785,0.042,0.946,0.9426,776935,2188,2304,2093,0.622,0.378,0.0258,0.1948,0.1699,0.1937,0.2686,0.1471
06099,Stanislaus County,California,2,Metro,37.559139,-120.997684,551430,34.8,12.8,9.1,99.3,0.126,0.064,0.619,79661,102442,0.8011,0.1914,0.074,0.94,0.9112,439181,1572,1625,1528,0.61,0.39,0.0503,0.2114,0.218,0.1273,0.2604,0.1326
06101,Sutter County,California,3,Metro,39.034537,-121.694832,97948,36.4,12.0,9.6,100.8,0.153,0.078,0.601,75450,101655,0.7883,0.2021,0.07,0.94,0.886,417901,1401,1463,1364,0.592,0.408,0.0833,0.1559,0.2162,0.1329,0.2777,0.1341
06103,Tehama County,California,4,Nonmetro,40.125597,-122.234104,64896,40.1,11.4,13.4,99.5,0.15,0.058,0.533,61834,92809,0.8628,0.1884,0.024,0.936,0.8631,303739,1189,1218,1159,0.676,0.324,0.0871,0.1579,0.1995,0.1075,0.3209,0.1272
06105,Trinity County,California,8,Nonmetro,40.650684,-123.112637,15670,54.8,6.4,12.0,95.9,0.208,0.057,0.397,53498,80934,0.9477,0.1805,0.004,0.876,0.7934,301433,750,683,922,0.73,0.27,0.1012,0.1815,0.1772,0.095,0.2237,0.2214
06107,Tulare County,California,2,Metro,36.220162,-118.800425,479468,31.9,14.1,7.8,100.5,0.175,0.1,0.607,69489,90157,0.7437,0.1584,0.126,0.92,0.8795,328957,1280,1383,1206,0.586,0.414,0.1492,0.149,0.1868,0.1073,0.2864,0.1213
06109,Tuolumne County,California,4,Nonmetro,38.027604,-119.954805,54204,48.8,8.0,14.5,106.1,0.105,0.05,0.493,72259,97299,0.9352,0.2394,0.005,0.942,0.8842,396335,1507,1628,1247,0.741,0.259,0.0261,0.1471,0.1729,0.1465,0.3187,0.1887
06111,Ventura County,California,2,Metro,34.456063,-119.083585,829590,39.4,10.3,7.8,99.0,0.098,0.043,0.645,107327,141716,0.8529,0.3567,0.058,0.921,0.9319,811890,2326,2410,2248,0.642,0.358,0.0482,0.1657,0.1691,0.2163,0.2617,0.1392
06113,Yolo County,California,1,Metro,38.686629,-121.901127,220544,32.3,8.6,6.8,94.9,0.153,0.047,0.618,88818,122086,0.8841,0.4408,0.055,0.954,0.9178,591455,1852,1966,1757,0.536,0.464,0.0324,0.114,0.1644,0.1744,0.3814,0.1336
06115,Yuba County,California,3,Metro,39.269049,-121.351224,85722,33.9,13.8,8.8,103.1,0.154,0.067,0.597,73313,93604,0.8466,0.179,0.031,0.931,0.9158,394181,1404,1651,1209,0.633,0.367,0.041,0.1474,0.2081,0.1479,0.323,0.1325
08001,Adams County,Colorado,1,Metro,39.87361,-104.338015,533365,34.6,12.3,6.9,103.3,0.097,0.034,0.719,91387,112415,0.8499,0.2802,0.045,0.889,0.9223,485464,1791,1874,1713,0.689,0.311,0.0175,0.1988,0.2277,0.1992,0.2172,0.1395
08003,Alamosa County,Colorado,7,Nonmetro,37.572912,-105.788364,16655,33.1,11.5,11.0,97.5,0.217,0.037,0.623,51445,73926,0.891,0.2931,0.019,0.936,0.9015,279774,875,820,904,0.564,0.436,0.0853,0.0909,0.1309,0.1475,0.3918,0.1536
08005,Arapahoe County,Colorado,1,Metro,39.649743,-104.339274,656061,37.3,11.6,7.1,99.6,0.101,0.031,0.715,97215,132105,0.9196,0.4574,0.044,0.91,0.9434,521263,1871,1934,1812,0.651,0.349,0.0082,0.1349,0.1879,0.2778,0.2586,0.1327
08007,Archuleta County,Colorado,7,Nonmetro,37.193538,-107.048282,14189,52.2,7.4,10.4,100.1,0.112,0.032,0.532,76524,97641,0.9535,0.4071,0.006,0.885,0.8957,544122,1254,1137,1409,0.775,0.225,0.0653,0.141,0.1712,0.2182,0.2165,0.1878
08009,Baca County,Colorado,9,Nonmetro,37.319198,-102.560382,3344,43.0,8.9,22.1,100.2,0.202,0.02,0.551,40380,61863,0.8579,0.2408,0.004,0.923,0.8255,115522,585,608,490,0.719,0.281,0.2291,0.1069,0.1375,0.0896,0.3665,0.0703
08011,Bent County,Colorado,9,Nonmetro,37.955106,-103.071726,5681,41.7,7.0,13.1,164.4,0.286,0.03,0.353,49194,58522,0.8119,0.1417,0.003,0.918,0.8336,125010,774,718,854,0.661,0.339,0.1137,0.1526,0.1759,0.0854,0.3461,0.1263
08013,Boulder County,Colorado,2,Metro,40.092477,-105.357759,326831,37.5,7.6,6.2,101.9,0.11,0.028,0.673,102772,144869,0.9553,0.6391,0.018,0.956,0.9504,723886,1926,1970,1893,0.625,0.375,0.0101,0.1518,0.14,0.2859,0.2705,0.1417
08014,Broomfield County,Colorado,1,Metro,39.954009,-105.052692,76860,38.8,8.4,6.0,101.4,0.051,0.03,0.71,121025,152217,0.9608,0.5864,0.011,0.952,0.9606,630667,2055,2032,2074,0.626,0.374,0.0061,0.149,0.142,0.3139,0.2638,0.1251
08015,Chaffee County,Colorado,6,Nonmetro,38.747078,-106.194156,20617,47.6,7.3,9.0,109.8,0.094,0.03,0.554,70909,100353,0.9459,0.4542,0.008,0.927,0.8669,641884,1222,1044,1514,0.729,0.271,0.0164,0.1379,0.1581,0.178,0.2839,0.2257
08017,Cheyenne County,Colorado,9,Nonmetro,38.827924,-102.603566,1727,43.0,8.1,15.0,106.2,0.133,0.021,0.676,67768,86295,0.9171,0.244,0.033,0.92,0.8881,174143,686,643,862,0.727,0.273,0.2293,0.107,0.166,0.1441,0.2937,0.06
08019,Clear Creek County,Colorado,1,Metro,39.689141,-105.644419,9147,49.2,5.8,7.5,106.8,0.077,0.028,0.691,96667,136058,0.9456,0.5626,0.006,0.931,0.9322,563575,1672,1794,1230,0.826,0.174,0.0408,0.124,0.1542,0.2569,0.2465,0.1775
08021,Conejos County,Colorado,9,Nonmetro,37.200707,-106.191621,7521,38.8,13.1,14.2,100.8,0.181,0.033,0.594,47209,66821,0.8905,0.2328,0.083,0.865,0.8049,205211,585,538,724,0.745,0.255,0.1259,0.1521,0.1609,0.1105,0.3023,0.1482
08023,Costilla County,Colorado,9,Nonmetro,37.278084,-105.428219,3628,50.7,9.1,16.6,101.8,0.226,0.044,0.438,36519,57688,0.8965,0.2785,0.062,0.917,0.8348,198572,527,466,857,0.785,0.215,0.0892,0.1125,0.1704,0.1238,0.4228,0.0812
08025,Crowley County,Colorado,8,Nonmetro,38.326579,-103.784477,5636,39.6,5.1,11.9,227.5,0.375,0.042,0.344,47563,57856,0.8294,0.1266,0.013,0.923,0.8132,140826,769,685,976,0.658,0.342,0.0754,0.1906,0.1771,0.0864,0.3444,0.1262
08027,Custer County,Colorado,8,Nonmetro,38.108686,-105.367512,5534,58.6,7.5,11.2,101.8,0.118,0.032,0.489,72700,90623,0.9645,0.3527,0.003,0.922,0.8043,382159,846,768,1021,0.857,0.143,0.0617,0.1512,0.1648,0.1784,0.2708,0.1731
08029,Delta County,Colorado,6,Nonmetro,38.861376,-107.862917,31746,48.4,8.6,15.0,98.9,0.129,0.036,0.485,58330,82168,0.91,0.2568,0.008,0.89,0.8073,368335,976,930,1080,0.764,0.236,0.1105,0.1896,0.1823,0.1305,0.2557,0.1317
08031,Denver County,Colorado,1,Metro,39.761771,-104.8758,716577,35.2,12.1,7.0,101.8,0.105,0.033,0.743,91681,131349,0.9136,0.5565,0.031,0.912,0.9232,557886,1839,1979,1770,0.491,0.509,0.0085,0.1227,0.1556,0.3265,0.2544,0.1322
08033,Dolores County,Colorado,9,Nonmetro,37.751726,-108.517313,2513,57.2,7.6,14.1,116.4,0.135,0.029,0.582,70490,89770,0.9619,0.2471,0.0,0.933,0.7439,271901,497,466,1688,0.841,0.159,0.0977,0.1076,0.0776,0.1837,0.4081,0.1253
08035,Douglas County,Colorado,1,Metro,39.329765,-104.9293,383906,39.5,10.0,5.1,101.4,0.037,0.029,0.723,145737,177521,0.9799,0.6093,0.008,0.963,0.9771,703092,2378,2524,2095,0.778,0.222,0.0112,0.1243,0.1613,0.3415,0.2457,0.1159
08037,Eagle County,Colorado,5,Nonmetro,39.62784,-106.695292,54381,39.3,9.4,3.4,116.6,0.066,0.026,0.744,103174,157411,0.9317,0.5027,0.045,0.899,0.9517,1208309,2059,2081,2032,0.676,0.324,0.0188,0.146,0.1788,0.1847,0.2249,0.2467
08039,Elbert County,Colorado,1,Metro,39.286528,-104.13574,28806,44.8,9.3,7.7,103.8,0.058,0.026,0.656,129477,156236,0.9681,0.3517,0.003,0.954,0.9457,658702,2171,2214,1436,0.944,0.056,0.0366,0.2085,0.1723,0.222,0.2394,0.1213
08041,El Paso County,Colorado,2,Metro,38.832113,-104.525358,744215,35.0,12.3,7.7,103.4,0.073,0.033,0.688,87470,113043,0.9511,0.4112,0.015,0.929,0.9464,447833,1660,1698,1609,0.664,0.336,0.0063,0.1373,0.1708,0.246,0.2934,0.1462
08043,Fremont County,Colorado,4,Nonmetro,38.47308,-105.439601,50318,44.9,7.0,13.5,138.9,0.184,0.049,0.433,61027,82233,0.9056,0.2104,0.005,0.941,0.8458,323609,912,873,1036,0.762,0.238,0.0255,0.1562,0.1496,0.1552,0.3606,0.1527
08045,Garfield County,Colorado,5,Nonmetro,39.599322,-107.90397,62707,37.2,11.4,6.6,105.7,0.091,0.029,0.73,86172,110409,0.8844,0.3341,0.051,0.821,0.922,619071,1593,1647,1515,0.697,0.303,0.0304,0.1651,0.1867,0.1978,0.2346,0.1853
08047,Gilpin County,Colorado,1,Metro,39.857505,-105.522559,5926,48.7,8.1,6.9,121.2,0.072,0.027,0.715,88654,118680,0.9408,0.4838,0.003,0.926,0.894,530933,1686,1808,1340,0.796,0.204,0.0014,0.1491,0.1007,0.2043,0.3145,0.2299
08049,Grand County,Colorado,9,Nonmetro,40.102651,-106.118337,15935,45.5,7.6,6.5,105.0,0.082,0.027,0.693,84558,110584,0.9436,0.4178,0.008,0.868,0.9276,750051,1374,1334,1451,0.764,0.236,0.0645,0.1467,0.1849,0.1854,0.2015,0.2169
08051,Gunnison County,Colorado,7,Nonmetro,38.666724,-107.031582,17321,37.0,7.7,4.9,121.4,0.107,0.026,0.726,77358,102255,0.9827,0.5927,0.002,0.938,0.9331,670331,1311,1471,1191,0.669,0.331,0.0378,0.1312,0.1458,0.174,0.2572,0.2541
08053,Hinsdale County,Colorado,9,Nonmetro,37.82127,-107.30029,765,54.8,5.2,6.5,98.1,0.053,0.029,0.556,64327,89073,1.0,0.4705,0.0,0.894,0.9366,421487,979,792,1099,0.797,0.203,0.0201,0.1607,0.1339,0.2723,0.1853,0.2277
08055,Huerfano County,Colorado,8,Nonmetro,37.684693,-104.960622,7055,55.1,5.7,19.1,115.2,0.183,0.058,0.411,52139,83426,0.9291,0.2706,0.012,0.958,0.7772,252926,702,684,739,0.773,0.227,0.0334,0.134,0.1259,0.1716,0.3348,0.2003
08057,Jackson County,Colorado,9,Nonmetro,40.666449,-106.342753,1309,51.5,4.6,9.9,118.1,0.133,0.022,0.578,41809,77824,0.8445,0.2754,0.0,0.925,0.8328,738686,584,531,1484,0.732,0.268,0.1636,0.1468,0.1728,0.13,0.237,0.1498
08059,Jefferson County,Colorado,1,Metro,39.586361,-105.250514,576366,40.4,9.5,8.7,101.2,0.074,0.029,0.693,107800,137752,0.9548,0.5075,0.011,0.948,0.9457,603229,1870,1937,1792,0.706,0.294,0.0131,0.1477,0.1687,0.28,0.252,0.1383
08061,Kiowa County,Colorado,9,Nonmetro,38.432638,-102.740235,1384,43.9,14.2,14.9,89.7,0.136,0.022,0.622,56389,73510,0.909,0.2063,0.03,0.93,0.8449,124224,760,677,869,0.697,0.303,0.2178,0.12,0.1347,0.1067,0.3734,0.0474
08063,Kit Carson County,Colorado,9,Nonmetro,39.305513,-102.602965,6994,39.0,13.3,13.6,102.4,0.123,0.018,0.657,59810,89493,0.8898,0.1844,0.036,0.892,0.8878,216234,884,852,916,0.683,0.317,0.2115,0.1202,0.1914,0.1351,0.2344,0.1072
08065,Lake County,Colorado,9,Nonmetro,39.202482,-106.344788,7365,36.9,11.6,6.3,103.5,0.114,0.025,0.768,93655,108464,0.9194,0.4608,0.003,0.867,0.8993,468202,1225,1096,1599,0.76,0.24,0.0581,0.1412,0.159,0.1757,0.2834,0.1827
08067,La Plata County,Colorado,6,Nonmetro,37.286547,-107.84333,56407,42.3,7.3,8.1,102.5,0.115,0.03,0.636,85296,106437,0.964,0.4726,0.009,0.905,0.8836,619558,1424,1437,1409,0.71,0.29,0.0303,0.12,0.1919,0.1936,0.291,0.1732
08069,Larimer County,Colorado,2,Metro,40.666393,-105.461109,370771,36.6,8.4,7.1,99.9,0.102,0.028,0.672,91364,118812,0.9664,0.5174,0.008,0.943,0.9286,540461,1696,1738,1677,0.643,0.357,0.0159,0.1714,0.1589,0.2214,0.2869,0.1455
08071,Las Animas County,Colorado,7,Nonmetro,37.315795,-104.038643,14348,46.5,7.7,17.0,111.4,0.171,0.05,0.517,50408,67905,0.8962,0.1727,0.014,0.915,0.8569,241543,885,894,875,0.701,0.299,0.0738,0.1096,0.2027,0.1448,0.3263,0.1428
08073,Lincoln County,Colorado,8,Nonmetro,38.988082,-103.513967,5480,40.7,9.5,12.6,144.1,0.148,0.028,0.462,54257,81465,0.8807,0.2572,0.001,0.921,0.7817,240218,831,815,854,0.711,0.289,0.1122,0.1178,0.2418,0.1207,0.2814,0.1263
08075,Logan County,Colorado,6,Nonmetro,40.724666,-103.110117,20619,39.1,9.3,13.0,118.7,0.14,0.027,0.587,55074,73188,0.8938,0.1891,0.005,0.912,0.8665,237770,937,871,1027,0.683,0.317,0.0829,0.1327,0.223,0.091,0.3202,0.1503
08077,Mesa County,Colorado,3,Metro,39.018305,-108.466447,159681,40.8,9.1,11.2,98.3,0.119,0.035,0.612,71485,92470,0.9235,0.3063,0.005,0.902,0.9218,380952,1191,1214,1154,0.719,0.281,0.0369,0.1563,0.2004,0.1726,0.2903,0.1437
08079,Mineral County,Colorado,9,Nonmetro,37.668969,-106.924142,944,53.7,7.5,11.7,103.3,0.097,0.025,0.589,52455,77895,0.9781,0.5453,0.0,0.844,0.9194,390638,920,971,903,0.737,0.263,0.0182,0.187,0.1169,0.0987,0.348,0.2312
08081,Moffat County,Colorado,7,Nonmetro,40.618395,-108.207448,13327,37.9,10.2,8.5,103.7,0.108,0.032,0.645,70975,84978,0.9151,0.21,0.022,0.911,0.8686,268910,1107,1173,1051,0.721,0.279,0.1201,0.1581,0.21,0.074,0.2984,0.1394
08083,Montezuma County,Colorado,6,Nonmetro,37.338572,-108.596577,26531,44.5,9.1,13.5,100.6,0.14,0.04,0.551,63005,82262,0.9096,0.3081,0.029,0.886,0.8244,373852,949,907,974,0.748,0.252,0.0616,0.1167,0.1858,0.1545,0.3313,0.1501
08085,Montrose County,Colorado,5,Nonmetro,38.402231,-108.269246,44156,45.7,9.0,12.3,99.8,0.107,0.033,0.557,66072,86915,0.9096,0.2827,0.029,0.871,0.8492,404451,977,881,1120,0.746,0.254,0.0366,0.1995,0.2129,0.1394,0.2651,0.1464
08087,Morgan County,Colorado,6,Nonmetro,40.262665,-103.809736,29524,36.9,13.8,10.3,106.5,0.125,0.03,0.653,75407,85441,0.846,0.1757,0.048,0.892,0.9093,327241,1166,1264,1092,0.651,0.349,0.1086,0.2548,0.2036,0.1153,0.2279,0.0898
08089,Otero County,Colorado,6,Nonmetro,37.902579,-103.716515,18136,40.9,11.1,15.3,98.9,0.201,0.041,0.566,54897,68583,0.892,0.188,0.024,0.929,0.8554,152193,820,831,796,0.689,0.311,0.0603,0.1622,0.1597,0.1136,0.3911,0.1132
08091,Ouray County,Colorado,9,Nonmetro,38.155476,-107.769261,5176,55.6,6.2,7.8,107.3,0.074,0.032,0.549,84556,109038,0.9732,0.5396,0.0,0.857,0.92,745749,1133,950,1398,0.78,0.22,0.0273,0.1379,0.1715,0.2295,0.2405,0.1934
08093,Park County,Colorado,1,Metro,39.11938,-105.717162,18117,51.7,7.7,7.3,111.0,0.081,0.028,0.596,95450,113500,0.973,0.3883,0.002,0.93,0.9161,521509,1714,1598,1942,0.874,0.126,0.0131,0.1962,0.1508,0.244,0.2291,0.1667
08095,Phillips County,Colorado,9,Nonmetro,40.593972,-102.357597,4476,40.3,11.4,15.7,92.8,0.121,0.022,0.637,60372,99893,0.9052,0.2565,0.061,0.945,0.8499,235798,900,847,947,0.749,0.251,0.1823,0.1347,0.1916,0.1319,0.247,0.1124
08097,Pitkin County,Colorado,7,Nonmetro,39.217077,-106.916581,16640,47.3,7.8,4.1,107.7,0.064,0.033,0.693,100318,200851,0.97,0.6397,0.028,0.955,0.9302,2157955,2020,2154,1880,0.675,0.325,0.0361,0.0826,0.1537,0.2936,0.2009,0.2331
08099,Prowers County,Colorado,7,Nonmetro,37.955182,-102.393359,11751,38.5,12.0,11.4,100.4,0.201,0.028,0.62,57601,84132,0.8472,0.1884,0.053,0.899,0.8365,159021,750,754,741,0.703,0.297,0.1388,0.1213,0.172,0.1052,0.3193,0.1436
08101,Pueblo County,Colorado,3,Metro,38.173521,-104.512736,169422,40.4,9.7,13.2,98.6,0.135,0.044,0.557,62250,82275,0.9046,0.2502,0.014,0.943,0.8679,286189,1083,1105,1059,0.683,0.317,0.0132,0.1501,0.2016,0.1416,0.3592,0.1344
08103,Rio Blanco County,Colorado,9,Nonmetro,39.979843,-108.217075,6569,39.1,8.8,10.7,110.8,0.108,0.033,0.599,72620,80991,0.9325,0.2659,0.015,0.904,0.944,277668,983,1043,924,0.759,0.241,0.1222,0.0994,0.2001,0.151,0.3088,0.1184
08105,Rio Grande County,Colorado,9,Nonmetro,37.582502,-106.38322,11188,43.2,10.7,14.9,102.3,0.178,0.04,0.603,62166,86169,0.8935,0.3111,0.041,0.862,0.8108,269916,848,875,782,0.684,0.316,0.1058,0.1092,0.1987,0.1056,0.3316,0.149
08107,Routt County,Colorado,7,Nonmetro,40.48513,-106.991258,25064,42.6,8.2,5.5,110.3,0.056,0.025,0.681,104803,148388,0.9652,0.5212,0.011,0.92,0.92,998981,1807,1837,1845,0.759,0.241,0.0341,0.172,0.1708,0.2049,0.2119,0.2063
08109,Saguache County,Colorado,9,Nonmetro,38.080488,-106.281486,6688,49.8,9.2,11.4,105.1,0.206,0.035,0.572,54283,81741,0.8826,0.3071,0.034,0.89,0.8571,268559,697,675,746,0.751,0.249,0.1861,0.1427,0.1658,0.0817,0.3226,0.101
08111,San Juan County,Colorado,9,Nonmetro,37.764042,-107.676158,802,42.2,7.5,8.7,121.2,0.123,0.026,0.723,73889,86808,1.0,0.4723,0.0,0.875,0.8343,504726,995,772,1076,0.555,0.445,0.012,0.1394,0.2235,0.1009,0.2933,0.2308
08113,San Miguel County,Colorado,9,Nonmetro,38.003823,-108.405865,7868,42.7,6.0,4.4,133.7,0.079,0.032,0.727,80117,131344,0.9829,0.6521,0.042,0.892,0.8857,1475421,1326,1531,1173,0.652,0.348,0.0154,0.1419,0.15,0.2687,0.2033,0.2207
08115,Sedgwick County,Colorado,9,Nonmetro,40.875903,-102.351843,2299,42.9,6.1,17.4,102.9,0.147,0.031,0.598,52833,77564,0.9125,0.274,0.02,0.917,0.865,147530,760,792,728,0.723,0.277,0.1291,0.1629,0.2217,0.097,0.2592,0.13
08117,Summit County,Colorado,5,Nonmetro,39.634186,-106.116362,30465,39.2,8.6,2.9,121.0,0.073,0.023,0.749,106255,138554,0.9493,0.5247,0.033,0.898,0.971,970231,1849,1874,1851,0.692,0.308,0.0272,0.1238,0.1671,0.2136,0.2292,0.2391
08119,Teller County,Colorado,2,Metro,38.8824,-105.161755,24617,52.0,7.2,9.8,104.6,0.083,0.03,0.583,80666,103056,0.9616,0.3783,0.002,0.93,0.9241,463245,1479,1422,1746,0.822,0.178,0.033,0.1379,0.1887,0.1732,0.2938,0.1735
08121,Washington County,Colorado,9,Nonmetro,39.971026,-103.201273,4855,41.2,10.7,13.6,110.2,0.142,0.023,0.59,65164,82841,0.8965,0.2488,0.032,0.937,0.8676,217376,818,720,991,0.717,0.283,0.1743,0.1099,0.2027,0.1203,0.3284,0.0644
08123,Weld County,Colorado,2,Metro,40.554824,-104.392455,359442,35.2,13.1,6.4,103.1,0.091,0.033,0.698,93287,114623,0.8846,0.3196,0.034,0.915,0.9201,491444,1707,1826,1469,0.755,0.245,0.0495,0.2129,0.1874,0.1821,0.2423,0.1258
08125,Yuma County,Colorado,9,Nonmetro,40.002929,-102.424253,9862,39.6,13.6,10.3,104.2,0.127,0.02,0.679,60051,85202,0.8378,0.2597,0.064,0.854,0.8974,241460,891,883,897,0.699,0.301,0.1986,0.0749,0.2641,0.1091,0.2333,0.1199
09110,Capitol Planning Region,Connecticut,1,Metro,41.818466,-72.572052,975328,40.2,9.6,9.4,96.0,0.098,0.0363,0.66,91541,122979,0.9117,0.4149,0.052,0.958,0.9068,353459,1576,1785,1351,0.654,0.346,0.0038,0.1594,0.1812,0.2352,0.3067,0.1137
09120,Greater Bridgeport Planning Region,Connecticut,2,Metro,41.242839,-73.231437,327651,40.0,10.3,7.3,96.2,0.113,0.0323,0.665,87135,134912,0.8726,0.4166,0.088,0.916,0.9021,622403,1809,2158,1482,0.654,0.346,0.0025,0.158,0.1836,0.2479,0.2869,0.121
09130,Lower Connecticut River Valley Planning Region,Connecticut,1,Metro,41.449917,-72.507193,176215,45.8,8.1,9.8,97.3,0.071,0.0343,0.653,101117,134068,0.9523,0.4545,0.024,0.966,0.9132,473654,1665,1825,1399,0.752,0.248,0.0045,0.1895,0.1629,0.2108,0.3086,0.1237
09140,Naugatuck Valley Planning Region,Connecticut,2,Metro,41.523148,-73.085998,456128,41.9,9.6,9.3,95.6,0.114,0.0333,0.656,86365,113511,0.9033,0.3379,0.05,0.955,0.893,484290,1525,1731,1288,0.676,0.324,0.0033,0.1854,0.1783,0.1939,0.3211,0.118
09150,Northeastern Connecticut Planning Region,Connecticut,4,Nonmetro,41.826987,-71.976941,96692,43.9,8.6,10.5,99.6,0.076,0.031,0.655,87564,107010,0.9211,0.2616,0.011,0.963,0.9041,408452,1446,1607,1153,0.762,0.238,0.0157,0.2201,0.219,0.1536,0.2894,0.1023
09160,Northwest Hills Planning Region,Connecticut,4,Nonmetro,41.846893,-73.221189,113463,47.1,8.1,10.5,99.9,0.084,0.0337,0.652,91035,130654,0.9406,0.3939,0.016,0.961,0.9255,407306,1477,1646,1169,0.759,0.241,0.015,0.1993,0.153,0.217,0.3048,0.1108
09170,South Central Connecticut Planning Region,Connecticut,2,Metro,41.361346,-72.844484,568158,40.2,10.0,9.6,93.5,0.125,0.0339,0.653,86266,118110,0.9167,0.4107,0.049,0.949,0.9169,508417,1658,1896,1463,0.606,0.394,0.0023,0.1595,0.1613,0.1849,0.3702,0.1218
09180,Southeastern Connecticut Planning Region,Connecticut,2,Metro,41.502301,-72.100013,279634,41.0,9.3,10.6,100.3,0.124,0.0307,0.645,84185,108630,0.9264,0.3464,0.033,0.955,0.9071,438506,1483,1635,1316,0.654,0.346,0.0061,0.2083,0.1576,0.1505,0.3083,0.1691
09190,Western Connecticut Planning Region,Connecticut,2,Metro,41.322761,-73.447474,623907,41.5,10.2,7.6,96.6,0.08,0.0327,0.683,124553,209168,0.9168,0.5505,0.063,0.925,0.9426,572994,2415,2759,2060,0.662,0.338,0.002,0.1443,0.1582,0.3348,0.2371,0.1237
10001,Kent County,Delaware,3,Metro,39.085944,-75.56864,189789,38.5,11.4,11.5,93.0,0.117,0.045,0.62,72872,89176,0.902,0.2674,0.02,0.93,0.9058,324405,1306,1321,1285,0.71,0.29,0.0093,0.1554,0.2173,0.1434,0.3472,0.1275
10003,New Castle County,Delaware,1,Metro,39.576763,-75.652702,578592,39.2,10.5,9.6,94.3,0.109,0.039,0.66,89901,118003,0.9259,0.3922,0.028,0.943,0.9249,325255,1427,1479,1379,0.685,0.315,0.0057,0.1295,0.1932,0.2556,0.2998,0.1162
10005,Sussex County,Delaware,4,Nonmetro,38.660569,-75.390046,263509,51.4,9.6,12.3,94.4,0.101,0.038,0.542,78162,105000,0.8964,0.3257,0.025,0.931,0.9013,465303,1153,1125,1221,0.813,0.187,0.0214,0.1822,0.1886,0.1873,0.2848,0.1357
11001,District of Columbia,District of Columbia,1,Metro,38.904681,-77.016295,678972,34.9,11.3,7.4,90.9,0.152,0.049,0.72,106287,157604,0.9285,0.6356,0.03,0.966,0.9026,621633,2103,2563,1900,0.411,0.589,0.0009,0.0392,0.0791,0.3558,0.3531,0.1718
12001,Alachua County,Florida,2,Metro,29.6749,-82.357804,285994,32.2,9.4,7.9,93.0,0.185,0.031,0.599,59659,92218,0.9423,0.4767,0.02,0.922,0.8786,291446,1215,1144,1255,0.541,0.459,0.0113,0.0841,0.1417,0.1753,0.4367,0.1509
12003,Baker County,Florida,1,Metro,30.331089,-82.284592,28368,38.1,12.6,12.3,111.3,0.125,0.029,0.554,70833,89095,0.8519,0.1534,0.0,0.896,0.8875,293024,984,973,1011,0.832,0.168,0.0084,0.1819,0.2014,0.157,0.3258,0.1255
12005,Bay County,Florida,3,Metro,30.265203,-85.620229,190769,41.4,11.3,11.6,98.8,0.118,0.028,0.629,70188,92641,0.9077,0.2804,0.021,0.862,0.9166,347570,1280,1155,1424,0.683,0.317,0.0063,0.1543,0.1907,0.2025,0.2635,0.1826
12007,Bradford County,Florida,6,Nonmetro,29.950036,-82.168753,27858,40.5,11.1,13.3,119.5,0.154,0.031,0.492,59740,73237,0.8269,0.1499,0.003,0.887,0.8848,221281,801,696,838,0.709,0.291,0.0177,0.1242,0.2,0.1965,0.3627,0.0989
12009,Brevard County,Florida,2,Metro,28.293715,-80.732313,643979,46.8,8.2,13.0,97.1,0.103,0.03,0.567,75817,101758,0.9314,0.3354,0.016,0.901,0.9217,347332,1253,1144,1456,0.769,0.231,0.0041,0.194,0.1839,0.2131,0.2615,0.1435
12011,Broward County,Florida,1,Metro,26.152316,-80.487065,1962531,41.3,10.8,8.4,96.2,0.127,0.029,0.664,74534,105773,0.9028,0.358,0.095,0.867,0.9103,418150,1696,1597,1804,0.633,0.367,0.0026,0.1221,0.2221,0.2504,0.249,0.154
12013,Calhoun County,Florida,8,Nonmetro,30.406032,-85.197142,13470,41.8,10.2,16.7,127.5,0.229,0.033,0.434,46901,63582,0.818,0.131,0.002,0.81,0.8569,169467,556,494,680,0.769,0.231,0.0328,0.1589,0.1865,0.104,0.3759,0.1419
12015,Charlotte County,Florida,3,Metro,26.905759,-81.911357,206134,60.0,5.4,15.2,96.8,0.091,0.035,0.426,66154,88575,0.9225,0.2531,0.016,0.902,0.9103,358298,1086,1014,1289,0.832,0.168,0.0056,0.1556,0.2206,0.2012,0.2494,0.1678
12017,Citrus County,Florida,3,Metro,28.848935,-82.479447,166696,56.9,6.3,19.1,96.0,0.157,0.045,0.397,55355,78901,0.9089,0.204,0.01,0.885,0.8977,276933,790,710,1069,0.848,0.152,0.0113,0.1447,0.2268,0.1653,0.2753,0.1765
12019,Clay County,Florida,1,Metro,29.983074,-81.857851,232439,40.2,10.0,10.3,97.6,0.079,0.029,0.627,86094,105559,0.9333,0.2869,0.014,0.918,0.9443,334811,1334,1259,1464,0.762,0.238,0.005,0.1238,0.2346,0.218,0.281,0.1375
12021,Collier County,Florida,2,Metro,26.11084,-81.347412,404310,53.1,8.5,10.4,97.4,0.105,0.029,0.514,86173,140361,0.8998,0.3954,0.064,0.888,0.9187,598030,1603,1525,1752,0.76,0.24,0.0155,0.1544,0.1787,0.2532,0.2115,0.1867
12023,Columbia County,Florida,4,Nonmetro,30.224329,-82.621523,73063,40.7,10.4,14.4,106.6,0.17,0.034,0.532,55070,73958,0.8549,0.1635,0.011,0.862,0.8711,246921,814,697,915,0.709,0.291,0.0237,0.1467,0.2271,0.1109,0.3307,0.1609
12027,DeSoto County,Florida,6,Nonmetro,27.186366,-81.809486,35979,42.8,11.5,12.2,122.3,0.188,0.036,0.481,50868,63257,0.7299,0.1098,0.07,0.812,0.8221,247468,758,609,910,0.713,0.287,0.1018,0.1847,0.1676,0.1759,0.23,0.14
12029,Dixie County,Florida,8,Nonmetro,29.60861,-83.158713,17465,45.8,9.0,16.5,121.9,0.237,0.036,0.428,47655,61155,0.8234,0.0809,0.008,0.823,0.7364,191295,432,405,792,0.838,0.162,0.0429,0.1313,0.2489,0.1509,0.2857,0.1402
12031,Duval County,Florida,1,Metro,30.331416,-81.671436,1030822,36.7,12.6,9.5,94.3,0.145,0.031,0.654,68447,93813,0.91,0.3309,0.036,0.885,0.9001,300048,1338,1276,1385,0.581,0.419,0.002,0.1246,0.2224,0.255,0.2448,0.1512
12033,Escambia County,Florida,2,Metro,30.66896,-87.362963,326928,38.1,11.6,12.3,97.3,0.14,0.031,0.615,65715,88025,0.9049,0.2893,0.014,0.879,0.9009,268359,1165,1090,1234,0.64,0.36,0.0061,0.123,0.1929,0.2268,0.2883,0.163
12035,Flagler County,Florida,2,Metro,29.461392,-81.313565,131439,52.6,6.8,13.1,93.5,0.089,0.037,0.497,72923,101501,0.9309,0.3044,0.036,0.892,0.8602,373751,1303,1163,1687,0.815,0.185,0.002,0.1264,0.2218,0.2337,0.2703,0.1458
12037,Franklin County,Florida,8,Nonmetro,29.87659,-84.81369,12594,49.2,7.0,15.0,126.0,0.166,0.029,0.465,62734,82821,0.8307,0.2529,0.003,0.847,0.8821,417475,789,737,1044,0.772,0.228,0.0405,0.1509,0.172,0.1782,0.3151,0.1434
12039,Gadsden County,Florida,2,Metro,30.579476,-84.613545,43833,42.0,11.1,13.9,92.0,0.215,0.039,0.478,46047,60499,0.8129,0.2008,0.022,0.836,0.7554,181451,745,719,792,0.729,0.271,0.0433,0.1204,0.1954,0.1406,0.3859,0.1144
12041,Gilchrist County,Florida,2,Metro,29.725824,-82.800371,19587,42.7,10.8,13.5,107.9,0.135,0.033,0.512,61070,86992,0.8554,0.1452,0.019,0.849,0.8141,283579,687,623,855,0.837,0.163,0.0625,0.1717,0.2043,0.1596,0.2909,0.111
12043,Glades County,Florida,8,Nonmetro,26.956381,-81.189022,12786,45.8,5.7,12.8,129.5,0.169,0.038,0.391,38905,62991,0.7237,0.1271,0.026,0.796,0.784,242436,573,531,927,0.797,0.203,0.0983,0.2568,0.258,0.1138,0.1667,0.1063
12045,Gulf County,Florida,8,Nonmetro,29.956457,-85.226356,15693,47.3,7.3,15.6,134.7,0.149,0.027,0.438,67361,94247,0.8674,0.2449,0.004,0.905,0.8728,395065,908,815,1161,0.803,0.197,0.0345,0.1577,0.1804,0.193,0.3177,0.1169
12047,Hamilton County,Florida,8,Nonmetro,30.496366,-82.947934,13471,40.6,12.5,15.5,125.1,0.219,0.043,0.361,47696,56421,0.7834,0.1121,0.015,0.867,0.7722,185643,557,447,819,0.749,0.251,0.0758,0.0857,0.274,0.1201,0.2804,0.164
12049,Hardee County,Florida,6,Nonmetro,27.492708,-81.809982,25760,35.9,14.0,12.8,117.6,0.205,0.041,0.515,54231,76755,0.7837,0.1225,0.082,0.832,0.8128,201756,792,636,954,0.714,0.286,0.14,0.1565,0.2123,0.1685,0.2348,0.0878
12051,Hendry County,Florida,4,Nonmetro,26.553487,-81.165869,43333,35.7,13.3,9.7,121.3,0.221,0.048,0.618,53044,74323,0.695,0.1073,0.147,0.794,0.8299,256372,851,797,958,0.724,0.276,0.1647,0.1871,0.1863,0.131,0.2295,0.1015
12053,Hernando County,Florida,1,Metro,28.553665,-82.424012,212807,48.1,7.9,15.2,94.5,0.121,0.038,0.51,63193,80550,0.9006,0.2044,0.022,0.883,0.9119,310985,1037,943,1209,0.818,0.182,0.0077,0.1501,0.2187,0.1993,0.2827,0.1415
12055,Highlands County,Florida,3,Metro,27.343316,-81.341022,107614,54.2,8.2,17.9,96.0,0.186,0.043,0.43,55581,72590,0.8636,0.1973,0.037,0.873,0.8492,231470,765,643,980,0.789,0.211,0.037,0.1493,0.1838,0.163,0.3292,0.1378
12057,Hillsborough County,Florida,1,Metro,27.929276,-82.30869,1535564,37.8,11.4,8.2,97.0,0.132,0.029,0.655,75011,106537,0.8958,0.3716,0.068,0.885,0.9317,381538,1500,1458,1543,0.611,0.389,0.0099,0.1324,0.1908,0.2855,0.2421,0.1394
12059,Holmes County,Florida,8,Nonmetro,30.867954,-85.814042,19944,42.4,11.6,16.2,113.9,0.182,0.032,0.493,48236,61718,0.8415,0.1205,0.011,0.867,0.7624,184187,532,474,823,0.767,0.233,0.0405,0.1737,0.2135,0.1105,0.3279,0.1339
12061,Indian River County,Florida,3,Metro,27.694321,-80.606413,169795,55.0,7.6,14.8,94.0,0.113,0.035,0.489,71049,104837,0.9199,0.3343,0.017,0.894,0.8861,373960,1160,1095,1284,0.793,0.207,0.0172,0.1353,0.1871,0.2419,0.2539,0.1647
12063,Jackson County,Florida,6,Nonmetro,30.795447,-85.215514,48622,42.9,10.8,14.8,118.0,0.206,0.034,0.434,47327,63425,0.8322,0.1464,0.005,0.902,0.8063,168117,683,558,846,0.745,0.255,0.0442,0.1335,0.1618,0.1363,0.3831,0.1411
12065,Jefferson County,Florida,2,Metro,30.437545,-83.895321,15450,47.0,8.9,13.7,109.2,0.235,0.032,0.532,56984,75727,0.8775,0.1884,0.002,0.902,0.7438,272020,717,664,790,0.751,0.249,0.0221,0.0896,0.2352,0.1614,0.3194,0.1721
12067,Lafayette County,Florida,9,Nonmetro,29.98548,-83.181079,8078,41.8,9.0,14.1,144.0,0.189,0.033,0.457,60692,65808,0.8003,0.079,0.021,0.89,0.8553,233599,528,515,880,0.814,0.186,0.0748,0.1745,0.1376,0.0857,0.3813,0.146
12069,Lake County,Florida,1,Metro,28.761548,-81.711299,424462,46.7,8.8,12.3,94.9,0.107,0.031,0.54,69956,90299,0.9092,0.2678,0.026,0.899,0.9149,359558,1201,1096,1468,0.766,0.234,0.0106,0.1465,0.2062,0.1829,0.2627,0.1912
12071,Lee County,Florida,2,Metro,26.578027,-81.833215,834573,49.3,9.0,10.4,96.8,0.121,0.032,0.532,73099,102290,0.9038,0.3076,0.051,0.875,0.9137,394840,1372,1229,1597,0.74,0.26,0.0065,0.1597,0.2169,0.2208,0.2353,0.1607
12073,Leon County,Florida,2,Metro,30.457993,-84.277907,296913,31.9,9.4,7.8,89.9,0.176,0.031,0.654,65074,93105,0.9371,0.4858,0.015,0.923,0.9075,274437,1227,1221,1230,0.519,0.481,0.0072,0.0734,0.1497,0.2059,0.4131,0.1506
12075,Levy County,Florida,2,Metro,29.318453,-82.743355,46545,47.1,8.6,14.6,95.6,0.183,0.035,0.499,53805,71892,0.8776,0.1618,0.023,0.851,0.7772,275540,689,609,826,0.798,0.202,0.03,0.1771,0.222,0.1292,0.2826,0.1592
12077,Liberty County,Florida,8,Nonmetro,30.241317,-84.882913,7706,39.1,9.7,10.2,131.0,0.208,0.033,0.416,53824,65763,0.79,0.1576,0.003,0.914,0.7952,175702,735,609,968,0.795,0.205,0.0375,0.1993,0.1933,0.0847,0.3854,0.0998
12079,Madison County,Florida,8,Nonmetro,30.444103,-83.470119,18519,44.9,9.4,16.4,111.2,0.198,0.033,0.436,48176,60900,0.8058,0.125,0.004,0.879,0.7302,200094,662,572,819,0.72,0.28,0.0452,0.1968,0.2393,0.0752,0.2976,0.1458
12081,Manatee County,Florida,2,Metro,27.471884,-82.315297,441095,49.4,8.6,10.9,94.3,0.104,0.03,0.544,75792,107117,0.9105,0.3434,0.027,0.883,0.9091,453783,1365,1244,1549,0.747,0.253,0.0071,0.1495,0.2049,0.2279,0.2538,0.1567
12083,Marion County,Florida,2,Metro,29.210294,-82.056621,409959,48.2,9.0,15.2,93.3,0.15,0.036,0.483,58535,77453,0.8961,0.2238,0.026,0.878,0.9057,277654,926,806,1174,0.767,0.233,0.019,0.1535,0.2195,0.1891,0.2709,0.1479
12085,Martin County,Florida,2,Metro,27.077493,-80.431454,163315,53.2,8.0,13.8,98.0,0.131,0.029,0.525,80701,120690,0.9272,0.3664,0.018,0.898,0.9104,465257,1280,1200,1499,0.801,0.199,0.0165,0.1584,0.1902,0.227,0.2249,0.1829
12086,Miami-Dade County,Florida,1,Metro,25.615177,-80.562393,2686867,40.8,10.9,8.3,96.1,0.141,0.018,0.64,68694,102498,0.8306,0.3321,0.242,0.857,0.8707,490986,1697,1668,1731,0.522,0.478,0.0068,0.1324,0.2266,0.2382,0.2392,0.1568
12087,Monroe County,Florida,4,Nonmetro,25.320708,-81.109202,80614,48.9,9.0,9.9,107.4,0.1,0.019,0.629,82430,130952,0.9326,0.378,0.05,0.851,0.8809,979289,1800,1645,1959,0.634,0.366,0.016,0.1176,0.1855,0.198,0.2074,0.2753
12089,Nassau County,Florida,1,Metro,30.610723,-81.801934,101501,46.3,8.5,11.3,98.3,0.095,0.028,0.572,88900,114157,0.9231,0.3452,0.007,0.925,0.9448,465011,1370,1377,1335,0.83,0.17,0.0058,0.1615,0.2089,0.2329,0.2456,0.1454
12091,Okaloosa County,Florida,2,Metro,30.691286,-86.591701,218464,37.3,12.4,9.8,103.2,0.101,0.026,0.648,79097,105647,0.9342,0.3422,0.027,0.886,0.9219,356864,1439,1404,1475,0.678,0.322,0.0061,0.1255,0.1699,0.2274,0.2865,0.1846
12093,Okeechobee County,Florida,4,Nonmetro,27.386411,-80.888578,41427,40.7,13.5,14.3,117.2,0.17,0.032,0.492,52288,72468,0.7999,0.161,0.041,0.827,0.8343,257609,816,712,974,0.746,0.254,0.0608,0.1438,0.2048,0.1186,0.3061,0.166
12095,Orange County,Florida,1,Metro,28.514413,-81.323476,1471416,36.4,11.4,6.6,97.0,0.124,0.028,0.674,77011,108171,0.9003,0.3841,0.081,0.877,0.9303,393210,1614,1547,1675,0.574,0.426,0.0036,0.1158,0.2024,0.2459,0.2233,0.2092
12097,Osceola County,Florida,1,Metro,28.062649,-81.149439,437784,37.0,11.4,7.2,98.4,0.109,0.034,0.656,68711,88551,0.886,0.2826,0.122,0.891,0.9188,375982,1523,1427,1651,0.662,0.338,0.0034,0.1356,0.2454,0.1944,0.1929,0.2284
12099,Palm Beach County,Florida,1,Metro,26.64757,-80.465497,1533801,45.4,9.9,10.4,95.2,0.108,0.03,0.597,81115,124934,0.8913,0.3955,0.071,0.868,0.9025,472173,1653,1512,1818,0.699,0.301,0.0087,0.129,0.1986,0.2577,0.2436,0.1623
12101,Pasco County,Florida,1,Metro,28.309153,-82.391971,632996,43.7,9.1,11.6,95.8,0.105,0.033,0.569,67384,92716,0.9121,0.2804,0.028,0.893,0.8991,341627,1207,1100,1372,0.755,0.245,0.0059,0.1328,0.2137,0.2387,0.2708,0.1381
12103,Pinellas County,Florida,1,Metro,27.919781,-82.725519,961596,48.9,7.8,12.9,93.4,0.113,0.028,0.589,70293,101629,0.9256,0.3584,0.031,0.893,0.8952,388515,1345,1201,1525,0.694,0.306,0.0032,0.1299,0.1845,0.2692,0.258,0.1553
12105,Polk County,Florida,2,Metro,27.948867,-81.697482,818330,39.6,11.1,10.4,97.2,0.13,0.037,0.571,63644,84031,0.8752,0.2264,0.053,0.87,0.8851,309342,1145,1041,1272,0.7,0.3,0.0109,0.1448,0.2409,0.1917,0.2261,0.1857
12107,Putnam County,Florida,4,Nonmetro,29.608677,-81.744292,75955,45.0,10.9,16.4,98.0,0.211,0.04,0.475,47256,64848,0.8221,0.1409,0.02,0.849,0.8424,202791,691,580,902,0.726,0.274,0.0399,0.222,0.2144,0.1312,0.2717,0.1208
12109,St. Johns County,Florida,1,Metro,29.90163,-81.440661,320110,44.0,7.9,7.9,95.9,0.061,0.027,0.603,106169,143324,0.9513,0.4861,0.011,0.936,0.9437,511313,1726,1715,1775,0.821,0.179,0.0066,0.1145,0.1834,0.3119,0.2347,0.1489
12111,St. Lucie County,Florida,2,Metro,27.377276,-80.472054,373586,45.3,9.8,11.0,96.5,0.104,0.035,0.563,69027,88516,0.8863,0.2537,0.043,0.879,0.9139,375708,1315,1236,1489,0.777,0.223,0.0078,0.1459,0.2251,0.1936,0.2747,0.1528
12113,Santa Rosa County,Florida,2,Metro,30.700398,-87.021859,203162,40.0,10.3,9.6,104.7,0.081,0.028,0.596,88968,110352,0.9263,0.3098,0.007,0.896,0.9301,345314,1375,1354,1445,0.8,0.2,0.0084,0.1312,0.2004,0.2242,0.2872,0.1485
12115,Sarasota County,Florida,2,Metro,27.184438,-82.331455,469013,57.3,6.4,13.7,92.1,0.095,0.03,0.488,80633,120022,0.9437,0.3966,0.025,0.9,0.9189,457483,1361,1196,1715,0.763,0.237,0.0061,0.1474,0.1915,0.236,0.2441,0.1749
12117,Seminole County,Florida,1,Metro,28.716964,-81.23626,484271,39.8,9.7,8.3,94.8,0.092,0.028,0.67,83030,111625,0.9389,0.4238,0.033,0.904,0.9395,393738,1583,1484,1686,0.658,0.342,0.0027,0.1224,0.197,0.2799,0.2471,0.1509
12119,Sumter County,Florida,3,Metro,28.704783,-82.08102,151565,68.4,3.7,17.1,98.5,0.097,0.042,0.251,73297,93594,0.9317,0.3507,0.004,0.948,0.9089,407203,903,837,1225,0.881,0.119,0.0145,0.1663,0.2064,0.2126,0.224,0.1762
12121,Suwannee County,Florida,6,Nonmetro,30.19557,-82.991498,46130,42.5,9.7,15.5,110.1,0.173,0.034,0.504,55479,70930,0.8451,0.1643,0.007,0.881,0.8527,248511,644,557,849,0.745,0.255,0.0333,0.1547,0.2915,0.1116,0.2616,0.1474
12123,Taylor County,Florida,6,Nonmetro,30.047034,-83.603538,21582,43.8,10.4,15.3,119.1,0.197,0.034,0.403,44985,74020,0.8621,0.1506,0.0,0.905,0.8127,185367,635,467,878,0.726,0.274,0.012,0.1926,0.2245,0.111,0.2713,0.1886
12125,Union County,Florida,8,Nonmetro,30.0439,-82.371389,15532,40.1,9.8,16.0,181.3,0.194,0.03,0.361,64922,83228,0.7833,0.1,0.0,0.904,0.8972,251570,680,569,846,0.736,0.264,0.0065,0.1339,0.266,0.1277,0.37,0.0959
12127,Volusia County,Florida,2,Metro,29.058403,-81.181886,590357,46.6,8.6,13.8,96.0,0.119,0.033,0.544,66581,87233,0.9194,0.2718,0.015,0.89,0.899,327667,1204,1105,1368,0.728,0.272,0.0072,0.1433,0.2092,0.2227,0.2582,0.1594
12129,Wakulla County,Florida,2,Metro,30.167325,-84.400726,36449,42.5,9.6,11.4,120.0,0.104,0.027,0.575,74183,92491,0.8749,0.2128,0.005,0.934,0.8967,282784,1079,1047,1155,0.838,0.162,0.0043,0.1632,0.1945,0.1467,0.3746,0.1167
12131,Walton County,Florida,2,Metro,30.643582,-86.169663,86354,43.8,11.3,10.2,103.4,0.109,0.028,0.594,79281,120486,0.9141,0.3423,0.022,0.859,0.9052,697157,1340,1220,1674,0.772,0.228,0.0038,0.1465,0.234,0.2513,0.2014,0.1628
12133,Washington County,Florida,3,Metro,30.610609,-85.66539,25602,41.6,10.9,14.5,110.8,0.168,0.033,0.459,52723,67695,0.8309,0.1249,0.005,0.856,0.841,204867,654,559,884,0.798,0.202,0.0079,0.2183,0.2301,0.149,0.2736,0.1211
13001,Appling County,Georgia,7,Nonmetro,31.749234,-82.288915,18457,39.9,11.2,12.9,100.9,0.211,0.034,0.526,43728,60995,0.8103,0.0995,0.008,0.836,0.7228,144678,615,529,711,0.718,0.282,0.0542,0.237,0.2728,0.0956,0.2625,0.0778
13003,Atkinson County,Georgia,9,Nonmetro,31.297164,-82.880059,8293,36.2,15.9,15.2,94.3,0.224,0.031,0.579,38438,58228,0.7161,0.0982,0.07,0.776,0.7871,120450,601,587,620,0.646,0.354,0.0718,0.3692,0.1749,0.0802,0.1986,0.1052
13005,Bacon County,Georgia,9,Nonmetro,31.553639,-82.452699,11124,39.0,11.9,14.9,96.3,0.229,0.029,0.522,50310,67308,0.8459,0.1102,0.01,0.855,0.8186,130812,643,608,789,0.739,0.261,0.0858,0.1981,0.255,0.1241,0.2621,0.0749
13007,Baker County,Georgia,8,Nonmetro,31.326109,-84.444725,2743,48.1,9.8,15.5,92.4,0.262,0.038,0.429,44405,61584,0.9054,0.1688,0.0,0.831,0.579,114629,551,475,643,0.727,0.273,0.0671,0.1947,0.1683,0.1419,0.3311,0.0968
13009,Baldwin County,Georgia,4,Nonmetro,33.069269,-83.249565,43396,36.4,8.9,12.1,101.3,0.214,0.042,0.472,55413,85755,0.8521,0.2413,0.003,0.882,0.8712,178145,844,818,865,0.642,0.358,0.0188,0.148,0.1698,0.143,0.3665,0.154
13011,Banks County,Georgia,8,Nonmetro,34.354321,-83.497257,19789,42.4,12.5,12.3,100.6,0.122,0.022,0.588,68830,82882,0.8226,0.1734,0.023,0.882,0.846,304814,872,921,788,0.767,0.233,0.0227,0.2859,0.2244,0.1255,0.2253,0.1162
13013,Barrow County,Georgia,1,Metro,33.993189,-83.712722,92792,36.4,12.6,8.8,97.5,0.112,0.028,0.666,77477,90487,0.8762,0.2102,0.023,0.846,0.9294,322232,1245,1260,1197,0.795,0.205,0.0061,0.2258,0.2287,0.1689,0.2328,0.1378
13015,Bartow County,Georgia,1,Metro,34.237655,-84.840337,115041,38.0,11.6,10.0,99.1,0.097,0.031,0.641,79431,94388,0.8865,0.2294,0.026,0.854,0.8463,300176,1188,1176,1202,0.739,0.261,0.0077,0.2681,0.2053,0.15,0.228,0.1409
13017,Ben Hill County,Georgia,7,Nonmetro,31.759771,-83.220434,17128,38.5,12.3,16.0,85.5,0.244,0.043,0.537,39081,56280,0.8428,0.1211,0.01,0.813,0.7237,109099,679,654,692,0.598,0.402,0.027,0.293,0.1981,0.102,0.2454,0.1343
13019,Berrien County,Georgia,8,Nonmetro,31.275943,-83.229649,18570,39.8,12.5,14.1,101.0,0.188,0.037,0.561,50414,67230,0.8279,0.128,0.007,0.812,0.8038,158383,745,689,771,0.69,0.31,0.0401,0.2984,0.156,0.1148,0.2887,0.1021
13021,Bibb County,Georgia,3,Metro,32.806429,-83.697328,156512,36.6,13.2,12.3,89.1,0.221,0.04,0.573,50747,77463,0.874,0.2599,0.012,0.864,0.8535,153073,1016,1000,1026,0.515,0.485,0.0082,0.1404,0.2112,0.1866,0.3223,0.1314
13023,Bleckley County,Georgia,6,Nonmetro,32.434455,-83.32784,12465,37.4,10.3,13.8,97.8,0.182,0.042,0.516,53005,76532,0.8791,0.1829,0.003,0.896,0.718,152399,731,696,765,0.733,0.267,0.0364,0.1086,0.2057,0.0835,0.4466,0.1191
13025,Brantley County,Georgia,3,Metro,31.196901,-81.981937,18401,40.9,11.4,13.4,97.3,0.178,0.035,0.513,47801,62571,0.8123,0.109,0.003,0.833,0.7572,138645,614,586,714,0.773,0.227,0.0269,0.1997,0.2555,0.1052,0.2726,0.1402
13027,Brooks County,Georgia,3,Metro,30.841948,-83.580155,16245,43.0,9.9,13.5,88.7,0.228,0.034,0.54,47656,67055,0.8296,0.1357,0.0,0.843,0.7107,154149,768,787,752,0.704,0.296,0.0517,0.2378,0.1811,0.0894,0.2941,0.146
13029,Bryan County,Georgia,2,Metro,32.014582,-81.443664,49739,34.7,12.8,6.9,99.6,0.082,0.026,0.695,94234,124970,0.9284,0.3464,0.012,0.914,0.9178,357825,1641,1649,1584,0.756,0.244,0.0067,0.1912,0.2581,0.1476,0.2625,0.134
13031,Bulloch County,Georgia,4,Nonmetro,32.396712,-81.743131,84327,30.2,10.2,8.1,94.3,0.237,0.034,0.601,56832,79142,0.8962,0.308,0.01,0.881,0.8618,238540,954,912,968,0.533,0.467,0.0158,0.1602,0.214,0.1351,0.3142,0.1606
13033,Burke County,Georgia,2,Metro,33.061104,-82.000612,24438,38.4,11.0,11.3,96.2,0.212,0.055,0.571,50739,81112,0.8411,0.1426,0.01,0.886,0.8303,144433,678,603,763,0.727,0.273,0.0312,0.2347,0.2237,0.1355,0.2404,0.1347
13035,Butts County,Georgia,1,Metro,33.28789,-83.957192,26887,38.5,10.9,12.8,115.9,0.155,0.029,0.521,59221,77092,0.8375,0.139,0.001,0.881,0.8599,260306,953,954,952,0.711,0.289,0.01,0.1658,0.3068,0.1624,0.2372,0.1179
13037,Calhoun County,Georgia,8,Nonmetro,31.529225,-84.624514,5457,39.7,8.2,11.9,161.7,0.355,0.028,0.346,55714,69405,0.7714,0.1214,0.0,0.884,0.7692,87420,623,631,638,0.629,0.371,0.1016,0.1628,0.1928,0.0997,0.3824,0.0605
13039,Camden County,Georgia,4,Nonmetro,30.930621,-81.669955,58118,34.6,13.3,8.5,108.1,0.116,0.03,0.611,72399,85169,0.9248,0.2243,0.0,0.912,0.8965,273400,1159,1150,1167,0.638,0.362,0.0091,0.168,0.207,0.1614,0.3004,0.154
13043,Candler County,Georgia,9,Nonmetro,32.403457,-82.073581,11059,41.0,13.2,17.7,95.5,0.215,0.025,0.548,50431,67496,0.7907,0.1364,0.055,0.827,0.8087,165028,610,545,706,0.625,0.375,0.0577,0.2066,0.2306,0.0927,0.2947,0.1176
13045,Carroll County,Georgia,1,Metro,33.582773,-85.079756,127098,35.3,12.5,10.1,95.0,0.143,0.033,0.639,72327,87579,0.8475,0.2243,0.022,0.874,0.8864,270488,1070,1036,1124,0.693,0.307,0.0055,0.2408,0.2024,0.1655,0.2641,0.1218
13047,Catoosa County,Georgia,2,Metro,34.903628,-85.138234,68910,40.8,8.3,11.8,96.0,0.107,0.027,0.621,72425,90614,0.8982,0.2447,0.009,0.896,0.8842,261079,988,1021,953,0.751,0.249,0.0074,0.2499,0.2438,0.1492,0.2323,0.1176
13049,Charlton County,Georgia,8,Nonmetro,30.781757,-82.137931,12934,38.0,9.5,12.0,138.0,0.262,0.031,0.506,48534,67272,0.8525,0.114,0.035,0.825,0.8186,172871,612,575,895,0.781,0.219,0.0225,0.2547,0.1778,0.2246,0.2304,0.0899
13051,Chatham County,Georgia,2,Metro,32.004329,-81.132962,303655,37.1,12.2,9.4,92.7,0.152,0.029,0.64,69575,95384,0.9124,0.3675,0.018,0.869,0.9167,311793,1355,1324,1382,0.563,0.437,0.0042,0.1292,0.2342,0.1936,0.2697,0.1691
13053,Chattahoochee County,Georgia,2,Metro,32.347005,-84.786964,8661,23.9,20.0,4.4,201.0,0.163,0.045,0.827,59221,69011,0.9713,0.2758,0.03,0.95,0.8419,112996,1096,648,1235,0.36,0.64,0.0,0.0943,0.2243,0.2401,0.3431,0.0982
13055,Chattooga County,Georgia,6,Nonmetro,34.474994,-85.34534,25222,41.1,9.8,14.9,106.8,0.207,0.037,0.489,47785,59859,0.7424,0.1073,0.007,0.879,0.83,157183,557,475,789,0.674,0.326,0.0116,0.3859,0.1839,0.1016,0.2423,0.0745
13057,Cherokee County,Georgia,1,Metro,34.243981,-84.476186,286602,40.0,10.4,7.0,98.1,0.066,0.026,0.687,105442,128400,0.9214,0.3945,0.027,0.892,0.95,436200,1607,1566,1703,0.774,0.226,0.0044,0.1839,0.2034,0.27,0.206,0.1325
13059,Clarke County,Georgia,3,Metro,33.951289,-83.367307,129933,29.4,10.3,6.8,90.2,0.241,0.033,0.625,52267,76893,0.8996,0.4867,0.029,0.889,0.915,290922,1162,1163,1162,0.412,0.588,0.0095,0.1153,0.1716,0.1569,0.3759,0.1707
13061,Clay County,Georgia,9,Nonmetro,31.62624,-84.980094,2853,46.1,9.8,15.8,82.1,0.264,0.078,0.478,48715,63155,0.8539,0.2256,0.0,0.931,0.7557,144025,646,653,578,0.769,0.231,0.1077,0.301,0.1354,0.0258,0.3108,0.1193
13063,Clayton County,Georgia,1,Metro,33.541893,-84.357582,298300,33.3,12.1,7.4,88.6,0.173,0.041,0.663,58507,74004,0.848,0.2134,0.043,0.823,0.9004,237886,1252,1163,1307,0.532,0.468,0.0042,0.1447,0.2896,0.1744,0.2441,0.1431
13065,Clinch County,Georgia,8,Nonmetro,30.914985,-82.706264,6746,38.8,14.0,12.7,101.0,0.233,0.028,0.508,55549,67216,0.8119,0.1302,0.01,0.775,0.7206,107035,575,663,505,0.701,0.299,0.1116,0.1878,0.1925,0.09,0.3064,0.1116
13067,Cobb County,Georgia,1,Metro,33.941542,-84.576746,776743,37.4,11.4,6.3,95.0,0.088,0.028,0.705,98712,131991,0.9279,0.5038,0.033,0.878,0.9594,408064,1609,1590,1640,0.67,0.33,0.0017,0.1519,0.1974,0.2947,0.2167,0.1374
13069,Coffee County,Georgia,7,Nonmetro,31.549363,-82.849224,43317,36.6,13.1,11.5,105.9,0.225,0.036,0.533,50175,63068,0.7965,0.1351,0.038,0.815,0.8278,139454,618,559,713,0.631,0.369,0.0489,0.2142,0.2253,0.1077,0.2745,0.1294
13071,Colquitt County,Georgia,6,Nonmetro,31.188351,-83.768833,46167,37.2,13.5,12.5,100.3,0.234,0.028,0.593,49691,71702,0.7972,0.157,0.033,0.792,0.8134,127964,694,632,779,0.634,0.366,0.1268,0.1911,0.1915,0.0993,0.3016,0.0896
13073,Columbia County,Georgia,2,Metro,33.54409,-82.264073,165162,37.5,11.2,7.4,95.8,0.068,0.03,0.646,96122,118347,0.9309,0.3784,0.013,0.911,0.9085,303074,1392,1425,1330,0.785,0.215,0.0045,0.1556,0.1701,0.2043,0.3264,0.1392
13075,Cook County,Georgia,6,Nonmetro,31.154041,-83.430534,17714,37.5,12.6,13.6,96.7,0.199,0.032,0.607,50133,68892,0.8334,0.1675,0.004,0.823,0.7647,141402,807,651,901,0.641,0.359,0.0218,0.2551,0.2532,0.0807,0.2688,0.1204
13077,Coweta County,Georgia,1,Metro,33.353379,-84.763371,155892,39.0,10.9,8.6,95.1,0.099,0.029,0.642,94142,116087,0.9186,0.3466,0.018,0.917,0.9205,367446,1412,1421,1397,0.776,0.224,0.0083,0.1669,0.2457,0.1995,0.2557,0.1239
13079,Crawford County,Georgia,3,Metro,32.714558,-83.986324,12277,46.0,8.2,16.5,107.5,0.158,0.032,0.555,60905,85248,0.8358,0.1401,0.005,0.882,0.7697,172986,688,672,751,0.845,0.155,0.0274,0.1766,0.2244,0.155,0.2848,0.1319
13081,Crisp County,Georgia,6,Nonmetro,31.92289,-83.768065,19631,40.4,12.3,14.3,94.9,0.26,0.037,0.565,42745,65205,0.8419,0.1551,0.013,0.839,0.736,122590,760,806,743,0.537,0.463,0.045,0.1907,0.2636,0.0907,0.3002,0.1098
13083,Dade County,Georgia,2,Metro,34.854635,-85.504417,16165,42.2,7.8,14.3,102.2,0.141,0.026,0.565,58936,83822,0.8842,0.1901,0.002,0.897,0.8456,221842,755,699,843,0.779,0.221,0.0085,0.2922,0.1434,0.1954,0.241,0.1195
13085,Dawson County,Georgia,1,Metro,34.444281,-84.170594,31732,43.9,10.8,9.6,104.3,0.08,0.026,0.619,88986,111715,0.8933,0.3575,0.004,0.869,0.9213,416443,1332,1265,1425,0.784,0.216,0.0009,0.1884,0.1914,0.2564,0.2554,0.1075
13087,Decatur County,Georgia,6,Nonmetro,30.878332,-84.579062,29087,38.7,12.1,13.0,93.2,0.223,0.034,0.526,50485,67257,0.8314,0.1464,0.01,0.85,0.7207,148717,813,750,860,0.618,0.382,0.0504,0.1782,0.203,0.1262,0.3072,0.1352
13089,DeKalb County,Georgia,1,Metro,33.771564,-84.226442,762992,36.3,13.3,6.8,90.4,0.133,0.033,0.683,77683,115757,0.9081,0.4675,0.044,0.87,0.9231,332274,1553,1511,1591,0.585,0.415,0.0035,0.1072,0.202,0.2826,0.2711,0.1335
13091,Dodge County,Georgia,7,Nonmetro,32.172179,-83.168427,19776,42.4,9.2,14.7,111.8,0.235,0.038,0.463,50152,67688,0.8605,0.1524,0.0,0.839,0.7259,129139,674,635,688,0.684,0.316,0.0174,0.3335,0.1053,0.0876,0.3233,0.1332
13093,Dooly County,Georgia,8,Nonmetro,32.157226,-83.798762,10981,45.9,9.1,14.7,122.7,0.225,0.038,0.45,56545,77693,0.8295,0.1338,0.001,0.838,0.6647,115370,706,636,761,0.666,0.334,0.095,0.2321,0.2033,0.155,0.2432,0.0712
13095,Dougherty County,Georgia,3,Metro,31.533459,-84.216411,82645,36.6,13.3,12.9,84.9,0.264,0.043,0.555,46784,63592,0.8536,0.2324,0.008,0.86,0.8046,113111,900,887,905,0.465,0.535,0.0145,0.1444,0.1945,0.1642,0.3461,0.1364
13097,Douglas County,Georgia,1,Metro,33.701873,-84.767934,149160,36.8,11.4,7.7,91.2,0.119,0.034,0.668,80764,98426,0.914,0.308,0.021,0.88,0.9301,303310,1402,1368,1447,0.664,0.336,0.0024,0.1586,0.2443,0.187,0.28,0.1276
13099,Early County,Georgia,8,Nonmetro,31.322828,-84.903632,10563,40.7,11.1,16.6,90.2,0.255,0.039,0.533,53750,69338,0.8098,0.1611,0.0,0.826,0.6085,109688,709,597,774,0.703,0.297,0.0559,0.2274,0.1633,0.1129,0.3433,0.0972
13101,Echols County,Georgia,3,Metro,30.710062,-82.894029,3709,31.2,13.3,9.5,83.6,0.216,0.028,0.665,61723,76146,0.8151,0.1441,0.068,0.788,0.6807,150669,658,524,833,0.768,0.232,0.1209,0.2687,0.1297,0.0622,0.2306,0.1881
13103,Effingham County,Georgia,2,Metro,32.367506,-81.341358,71541,36.6,12.1,8.5,98.1,0.085,0.026,0.666,85465,104190,0.9075,0.268,0.006,0.904,0.82,300022,1321,1406,1116,0.785,0.215,0.0131,0.2768,0.2245,0.1311,0.2559,0.0986
13105,Elbert County,Georgia,6,Nonmetro,34.116753,-82.840056,20013,42.4,11.2,15.3,89.7,0.18,0.036,0.583,49727,66048,0.8491,0.1486,0.036,0.887,0.7709,149365,708,581,849,0.686,0.314,0.0572,0.3172,0.1921,0.0906,0.2394,0.1035
13107,Emanuel County,Georgia,7,Nonmetro,32.589714,-82.301719,23119,38.6,12.5,14.7,101.1,0.261,0.042,0.57,50053,62724,0.7938,0.1284,0.008,0.833,0.8269,112870,638,543,742,0.598,0.402,0.0531,0.2394,0.2462,0.0865,0.2599,0.1146
13109,Evans County,Georgia,8,Nonmetro,32.156752,-81.886934,10754,36.9,11.4,12.4,91.2,0.237,0.029,0.56,53908,69872,0.824,0.1509,0.035,0.829,0.7882,145029,638,607,720,0.64,0.36,0.1024,0.2266,0.1781,0.1026,0.2461,0.1442
13111,Fannin County,Georgia,8,Nonmetro,34.864081,-84.319858,25955,54.0,7.2,16.8,96.6,0.139,0.028,0.498,58073,85986,0.8829,0.226,0.001,0.848,0.8846,461598,840,802,876,0.782,0.218,0.0215,0.1892,0.1789,0.2071,0.1947,0.2086
